<     SOL_COMPUTED SINGLE 51.07888436815 -114.13096310100 1124.1037 -16.6000 WGS84 1.7593 1.6076 2.7451 "" 0.000 0.000 28 26 26 24 00 06 35 33
[USB3]$GPGGA,185425.60,5104.7328937,N,11407.8575519,W,1,25,0.6,1124.305,M,-16.60,M,,*58
<BESTPOS USB3 0 67.5 FINESTEERING 2354 586483.600 02000000 cdba 17399
<     SOL_COMPUTED SINGLE 51.07888156117 -114.13095919897 1124.3051 -16.6000 WGS84 1.7489 1.6416 2.7311 "" 0.000 0.000 27 25 25 23 00 06 35 33
[USB3]$GPGGA,185425.70,5104.7320498,N,11407.8562270,W,1,25,0.6,1126.270,M,-16.60,M,,*56
<BESTPOS USB3 0 67.5 FINESTEERING 2354 586483.700 02000000 cdba 17399
<     SOL_COMPUTED SINGLE 51.07886749697 -114.13093711604 1126.2701 -16.6000 WGS84 1.6031 1.3522 2.5688 "" 0.000 0.000 27 25 25 23 00 06 35 37
[USB3]$GPGGA,185425.80,5104.7319229,N,11407.8556784,W,1,25,0.6,1126.908,M,-16.60,M,,*52
<BESTPOS USB3 0 67.5 FINESTEERING 2354 586483.800 02000000 cdba 17399
<     SOL_COMPUTED SINGLE 51.07886538220 -114.13092797356 1126.9080 -16.6000 WGS84 1.5784 1.3194 2.5466 "" 0.000 0.000 27 25 25 23 00 06 35 37
[USB3]$GPGGA,185425.90,5104.7309418,N,11407.8558175,W,1,24,0.6,1124.413,M,-16.60,M,,*54
<BESTPOS USB3 0 67.5 FINESTEERING 2354 586483.900 02000000 cdba 17399
<     SOL_COMPUTED SINGLE 51.07884902923 -114.13093029188 1124.4128 -16.6000 WGS84 1.7458 1.3474 2.6807 "" 0.000 0.000 26 24 24 23 00 06 35 37
[USB3]$GPGGA,185426.00,5104.7320316,N,11407.8554314,W,1,26,0.6,1127.333,M,-16.60,M,,*51
<BESTPOS USB3 0 67.5 FINESTEERING 2354 586484.000 02000000 cdba 17399
<     SOL_COMPUTED SINGLE 51.07886719317 -114.13092385590 1127.3330 -16.6000 WGS84 1.5868 1.3567 2.5698 "" 0.000 0.000 28 26 26 24 00 06 35 37
[USB3]$GPGGA,185426.10,5104.7319294,N,11407.8550701,W,1,26,0.6,1127.583,M,-16.60,M,,*58
<BESTPOS USB3 0 67.5 FINESTEERING 2354 586484.100 02000000 cdba 17399
<     SOL_COMPUTED SINGLE 51.07886549055 -114.13091783453 1127.5830 -16.6000 WGS84 1.5596 1.3243 2.5497 "" 0.000 0.000 28 26 26 23 00 06 35 37
[USB3]$GPGGA,185426.20,5104.7324914,N,11407.8558737,W,1,27,0.6,1127.954,M,-16.60,M,,*5C
<BESTPOS USB3 0 70.0 FINESTEERING 2354 586484.200 02000000 cdba 17399
<     SOL_COMPUTED SINGLE 51.07887485712 -114.13093122851 1127.9544 -16.6000 WGS84 1.4458 1.1813 2.5586 "" 0.000 0.000 28 27 27 24 00 06 35 37
[USB3]$GPGGA,185426.30,5104.7322505,N,11407.8554838,W,1,26,0.6,1124.980,M,-16.60,M,,*50
<BESTPOS USB3 0 70.0 FINESTEERING 2354 586484.300 02000000 cdba 17399
<     SOL_COMPUTED SINGLE 51.07887084240 -114.13092473030 1124.9803 -16.6000 WGS84 1.4899 1.2397 2.6210 "" 0.000 0.000 28 26 26 24 00 06 35 37
[USB3]$GPGGA,185426.40,5104.7324564,N,11407.8582132,W,1,26,0.6,1119.498,M,-16.60,M,,*54
<BESTPOS USB3 0 70.0 FINESTEERING 2354 586484.400 02000000 cdba 17399
<     SOL_COMPUTED SINGLE 51.07887427318 -114.13097021949 1119.4982 -16.6000 WGS84 1.6899 1.3570 2.9713 "" 0.000 0.000 28 26 26 23 00 06 35 37
[USB3]$GPGGA,185426.50,5104.7336031,N,11407.8577775,W,1,24,0.7,1122.731,M,-16.60,M,,*57
<BESTPOS USB3 0 70.0 FINESTEERING 2354 586484.500 02000000 cdba 17399
<     SOL_COMPUTED SINGLE 51.07889338484 -114.13096295853 1122.7312 -16.6000 WGS84 1.5712 1.3628 2.8135 "" 0.000 0.000 25 24 24 22 00 06 35 37
[USB3]$GPGGA,185426.60,5104.7337443,N,11407.8578058,W,1,26,0.6,1122.637,M,-16.60,M,,*57
<BESTPOS USB3 0 70.0 FINESTEERING 2354 586484.600 02000000 cdba 17399
<     SOL_COMPUTED SINGLE 51.07889573830 -114.13096342937 1122.6367 -16.6000 WGS84 1.6254 1.3777 2.8017 "" 0.000 0.000 27 26 26 22 00 06 35 33
[USB3]$GPGGA,185426.70,5104.7337858,N,11407.8577053,W,1,25,0.6,1122.653,M,-16.60,M,,*55
<BESTPOS USB3 0 70.0 FINESTEERING 2354 586484.700 02000000 cdba 17399
<     SOL_COMPUTED SINGLE 51.07889642937 -114.13096175551 1122.6527 -16.6000 WGS84 1.6266 1.3728 2.8060 "" 0.000 0.000 27 25 25 23 00 06 35 33
[USB3]$GPGGA,185426.80,5104.7338349,N,11407.8575936,W,1,26,0.6,1122.679,M,-16.60,M,,*5D
<BESTPOS USB3 0 70.0 FINESTEERING 2354 586484.800 02000000 cdba 17399
<     SOL_COMPUTED SINGLE 51.07889724850 -114.13095989394 1122.6795 -16.6000 WGS84 1.6263 1.3768 2.8033 "" 0.000 0.000 28 26 26 22 00 06 35 33
[USB3]$GPGGA,185426.90,5104.7339462,N,11407.8573417,W,1,26,0.6,1123.191,M,-16.60,M,,*5B
<BESTPOS USB3 0 70.0 FINESTEERING 2354 586484.900 02000000 cdba 17399
<     SOL_COMPUTED SINGLE 51.07889910304 -114.13095569569 1123.1909 -16.6000 WGS84 1.6293 1.3785 2.8032 "" 0.000 0.000 28 26 26 24 00 06 35 33
[USB3]$GPGGA,185427.00,5104.7328144,N,11407.8574329,W,1,27,0.6,1120.003,M,-16.60,M,,*57
<BESTPOS USB3 0 70.0 FINESTEERING 2354 586485.000 02000000 cdba 17399
<     SOL_COMPUTED SINGLE 51.07888023950 -114.13095721486 1120.0027 -16.6000 WGS84 1.7086 1.3660 2.9041 "" 0.000 0.000 29 27 27 24 00 06 35 33
[USB3]$GPGGA,185427.10,5104.7343171,N,11407.8573594,W,1,27,0.6,1123.307,M,-16.60,M,,*5E
<BESTPOS USB3 0 65.5 FINESTEERING 2354 586485.100 02000000 cdba 17399
<     SOL_COMPUTED SINGLE 51.07890528574 -114.13095598923 1123.3070 -16.6000 WGS84 1.5851 1.3342 2.7633 "" 0.000 0.000 29 27 27 24 00 06 35 33
[USB3]$GPGGA,185427.20,5104.7345079,N,11407.8576762,W,1,27,0.6,1123.386,M,-16.60,M,,*55
<BESTPOS USB3 0 65.5 FINESTEERING 2354 586485.200 02000000 cdba 17399
<     SOL_COMPUTED SINGLE 51.07890846438 -114.13096126976 1123.3855 -16.6000 WGS84 1.6411 1.4498 2.7784 "" 0.000 0.000 28 27 27 24 00 06 35 33
[USB3]$GPGGA,185427.30,5104.7342168,N,11407.8572220,W,1,26,0.6,1123.752,M,-16.60,M,,*59
<BESTPOS USB3 0 65.5 FINESTEERING 2354 586485.300 02000000 cdba 17399
<     SOL_COMPUTED SINGLE 51.07890361356 -114.13095370060 1123.7521 -16.6000 WGS84 1.6644 1.4736 2.8388 "" 0.000 0.000 28 26 26 23 00 06 35 33
[USB3]$GPGGA,185427.40,5104.7342182,N,11407.8561675,W,1,25,0.6,1125.086,M,-16.60,M,,*57
<BESTPOS USB3 0 65.5 FINESTEERING 2354 586485.400 02000000 cdba 17399
<     SOL_COMPUTED SINGLE 51.07890363652 -114.13093612520 1125.0859 -16.6000 WGS84 1.6459 1.6343 3.0250 "" 0.000 0.000 26 25 25 21 00 06 35 33
[USB3]$GPGGA,185427.50,5104.7341855,N,11407.8560736,W,1,24,0.7,1124.776,M,-16.60,M,,*58
<BESTPOS USB3 0 65.5 FINESTEERING 2354 586485.500 02000000 cdba 17399
<     SOL_COMPUTED SINGLE 51.07890309241 -114.13093456071 1124.7759 -16.6000 WGS84 1.5832 1.6265 3.0462 "" 0.000 0.000 25 24 24 21 00 06 35 33
[USB3]$GPGGA,185427.60,5104.7341695,N,11407.8566882,W,1,26,0.6,1123.553,M,-16.60,M,,*5E
<BESTPOS USB3 0 65.5 FINESTEERING 2354 586485.600 02000000 cdba 17399
<     SOL_COMPUTED SINGLE 51.07890282424 -114.13094480270 1123.5528 -16.6000 WGS84 1.5945 1.4329 2.8552 "" 0.000 0.000 28 26 26 22 00 06 35 33
[USB3]$GPGGA,185427.70,5104.7344044,N,11407.8566035,W,1,26,0.6,1124.007,M,-16.60,M,,*57
<BESTPOS USB3 0 65.5 FINESTEERING 2354 586485.700 02000000 cdba 17399
<     SOL_COMPUTED SINGLE 51.07890674073 -114.13094339091 1124.0065 -16.6000 WGS84 1.5964 1.4491 2.8398 "" 0.000 0.000 27 26 26 22 00 06 35 33
[USB3]$GPGGA,185427.80,5104.7345576,N,11407.8557754,W,1,26,0.6,1125.878,M,-16.60,M,,*5E
<BESTPOS USB3 0 65.5 FINESTEERING 2354 586485.800 02000000 cdba 17399
<     SOL_COMPUTED SINGLE 51.07890929394 -114.13092958980 1125.8783 -16.6000 WGS84 1.5639 1.3319 2.7367 "" 0.000 0.000 28 26 26 22 00 06 35 33
[USB3]$GPGGA,185427.90,5104.7342635,N,11407.8559237,W,1,26,0.6,1124.802,M,-16.60,M,,*5E
<BESTPOS USB3 0 65.5 FINESTEERING 2354 586485.900 02000000 cdba 17399
<     SOL_COMPUTED SINGLE 51.07890439128 -114.13093206088 1124.8018 -16.6000 WGS84 1.5281 1.3259 2.7092 "" 0.000 0.000 27 26 26 23 00 06 35 33
[USB3]$GPGGA,185428.00,5104.7342338,N,11407.8556957,W,1,25,0.7,1124.757,M,-16.60,M,,*5F
<BESTPOS USB3 0 65.5 FINESTEERING 2354 586486.000 02000000 cdba 17399
<     SOL_COMPUTED SINGLE 51.07890389647 -114.13092826177 1124.7574 -16.6000 WGS84 1.4987 1.2752 2.7064 "" 0.000 0.000 26 25 25 23 00 06 35 33
[USB3]$GPGGA,185428.10,5104.7341781,N,11407.8553904,W,1,26,0.6,1124.447,M,-16.60,M,,*58
<BESTPOS USB3 0 65.5 FINESTEERING 2354 586486.100 02000000 cdba 17399
<     SOL_COMPUTED SINGLE 51.07890296796 -114.13092317369 1124.4474 -16.6000 WGS84 1.4681 1.1941 2.6846 "" 0.000 0.000 27 26 26 23 00 06 35 33
[USB3]$GPGGA,185428.20,5104.7344123,N,11407.8557253,W,1,25,0.7,1123.598,M,-16.60,M,,*5B
<BESTPOS USB3 0 67.5 FINESTEERING 2354 586486.200 02000000 cdba 17399
<     SOL_COMPUTED SINGLE 51.07890687140 -114.13092875515 1123.5976 -16.6000 WGS84 1.5136 1.3007 2.8205 "" 0.000 0.000 26 25 25 23 00 06 35 33
[USB3]$GPGGA,185428.30,5104.7329185,N,11407.8552329,W,1,25,0.7,1121.537,M,-16.60,M,,*53
<BESTPOS USB3 0 67.5 FINESTEERING 2354 586486.300 02000000 cdba 17399
<     SOL_COMPUTED SINGLE 51.07888197537 -114.13092054852 1121.5367 -16.6000 WGS84 1.6015 1.1900 2.8274 "" 0.000 0.000 26 25 25 22 00 06 35 33
[USB3]$GPGGA,185428.40,5104.7339195,N,11407.8546105,W,1,25,0.7,1122.269,M,-16.60,M,,*52
<BESTPOS USB3 0 67.5 FINESTEERING 2354 586486.400 02000000 cdba 17399
<     SOL_COMPUTED SINGLE 51.07889865829 -114.13091017561 1122.2686 -16.6000 WGS84 1.5477 1.3195 2.8409 "" 0.000 0.000 26 25 25 22 00 06 35 33
[USB3]$GPGGA,185428.50,5104.7345628,N,11407.8548702,W,1,23,0.7,1124.161,M,-16.60,M,,*5D
<BESTPOS USB3 0 67.5 FINESTEERING 2354 586486.500 02000000 cdba 17399
<     SOL_COMPUTED SINGLE 51.07890937951 -114.13091450266 1124.1606 -16.6000 WGS84 1.5433 1.3392 2.8588 "" 0.000 0.000 24 23 23 20 00 06 35 33
[USB3]$GPGGA,185428.60,5104.7344090,N,11407.8551844,W,1,24,0.7,1123.326,M,-16.60,M,,*5E
<BESTPOS USB3 0 67.5 FINESTEERING 2354 586486.600 02000000 cdba 17399
<     SOL_COMPUTED SINGLE 51.07890681646 -114.13091974050 1123.3255 -16.6000 WGS84 1.5392 1.3022 2.8208 "" 0.000 0.000 25 24 24 21 00 06 35 33
[USB3]$GPGGA,185428.70,5104.7333811,N,11407.8557039,W,1,23,0.7,1120.011,M,-16.60,M,,*59
<BESTPOS USB3 0 67.5 FINESTEERING 2354 586486.700 02000000 cdba 17399
<     SOL_COMPUTED SINGLE 51.07888968576 -114.13092839809 1120.0107 -16.6000 WGS84 1.6611 1.3091 2.9761 "" 0.000 0.000 24 23 23 22 00 06 35 33
[USB3]$GPGGA,185428.80,5104.7341583,N,11407.8543369,W,1,25,0.7,1124.223,M,-16.60,M,,*57
<BESTPOS USB3 0 67.5 FINESTEERING 2354 586486.800 02000000 cdba 17399
<     SOL_COMPUTED SINGLE 51.07890263803 -114.13090561509 1124.2228 -16.6000 WGS84 1.5031 1.2345 2.7933 "" 0.000 0.000 26 25 25 23 00 06 35 33
[USB3]$GPGGA,185428.90,5104.7347908,N,11407.8540355,W,1,24,0.6,1125.397,M,-16.60,M,,*5C
<BESTPOS USB3 0 67.5 FINESTEERING 2354 586486.900 02000000 cdba 17399
<     SOL_COMPUTED SINGLE 51.07891317940 -114.13090059229 1125.3970 -16.6000 WGS84 1.5477 1.4933 3.0138 "" 0.000 0.000 25 24 24 21 00 06 35 33
[USB3]$GPGGA,185429.00,5104.7337088,N,11407.8549422,W,1,22,0.8,1121.141,M,-16.60,M,,*59
<BESTPOS USB3 0 67.5 FINESTEERING 2354 586487.000 02000000 cdba 17399
<     SOL_COMPUTED SINGLE 51.07889514629 -114.13091570337 1121.1406 -16.6000 WGS84 1.7944 1.6615 3.4235 "" 0.000 0.000 23 22 22 21 00 06 35 33
[USB3]$GPGGA,185429.10,5104.7341924,N,11407.8542766,W,1,24,0.7,1123.483,M,-16.60,M,,*5E
<BESTPOS USB3 0 66.5 FINESTEERING 2354 586487.100 02000000 cdba 17399
<     SOL_COMPUTED SINGLE 51.07890320738 -114.13090460983 1123.4834 -16.6000 WGS84 1.5383 1.2317 2.7844 "" 0.000 0.000 25 24 24 20 00 06 35 33
[USB3]$GPGGA,185429.20,5104.7340100,N,11407.8539161,W,1,26,0.6,1123.442,M,-16.60,M,,*51
<BESTPOS USB3 0 66.5 FINESTEERING 2354 586487.200 02000000 cdba 17399
<     SOL_COMPUTED SINGLE 51.07890016708 -114.13089860201 1123.4415 -16.6000 WGS84 1.5429 1.2552 2.7783 "" 0.000 0.000 27 26 26 20 00 06 35 33
[USB3]$GPGGA,185429.30,5104.7343256,N,11407.8540159,W,1,26,0.6,1123.688,M,-16.60,M,,*52
<BESTPOS USB3 0 66.5 FINESTEERING 2354 586487.300 02000000 cdba 17399
<     SOL_COMPUTED SINGLE 51.07890542750 -114.13090026555 1123.6884 -16.6000 WGS84 1.5069 1.2224 2.7670 "" 0.000 0.000 27 26 26 21 00 06 35 33
[USB3]$GPGGA,185429.40,5104.7344501,N,11407.8540386,W,1,26,0.6,1123.686,M,-16.60,M,,*59
<BESTPOS USB3 0 66.5 FINESTEERING 2354 586487.400 02000000 cdba 17399
<     SOL_COMPUTED SINGLE 51.07890750142 -114.13090064271 1123.6865 -16.6000 WGS84 1.5071 1.2333 2.7633 "" 0.000 0.000 28 26 26 20 00 06 35 33
[USB3]$GPGGA,185429.50,5104.7347178,N,11407.8547839,W,1,25,0.6,1122.455,M,-16.60,M,,*57
<BESTPOS USB3 0 66.5 FINESTEERING 2354 586487.500 02000000 cdba 17399
<     SOL_COMPUTED SINGLE 51.07891196326 -114.13091306452 1122.4548 -16.6000 WGS84 1.5523 1.3091 2.7950 "" 0.000 0.000 27 25 25 21 00 06 35 33
[USB3]$GPGGA,185429.60,5104.7346431,N,11407.8546019,W,1,25,0.6,1122.334,M,-16.60,M,,*56
<BESTPOS USB3 0 66.5 FINESTEERING 2354 586487.600 02000000 cdba 17399
<     SOL_COMPUTED SINGLE 51.07891071893 -114.13091003131 1122.3338 -16.6000 WGS84 1.5561 1.3119 2.7997 "" 0.000 0.000 27 25 25 22 00 06 35 33
[USB3]$GPGGA,185429.70,5104.7342979,N,11407.8534382,W,1,24,0.6,1121.658,M,-16.60,M,,*5B
<BESTPOS USB3 0 66.5 FINESTEERING 2354 586487.700 02000000 cdba 17399
<     SOL_COMPUTED SINGLE 51.07890496553 -114.13089063646 1121.6584 -16.6000 WGS84 1.5910 1.3757 2.8668 "" 0.000 0.000 26 24 24 19 00 06 35 33
[USB3]$GPGGA,185429.80,5104.7337720,N,11407.8550762,W,1,21,0.9,1118.911,M,-16.60,M,,*5E
<BESTPOS USB3 0 66.5 FINESTEERING 2354 586487.800 02000000 cdba 17399
<     SOL_COMPUTED SINGLE 51.07889620012 -114.13091793646 1118.9106 -16.6000 WGS84 1.9046 1.7354 3.1164 "" 0.000 0.000 23 21 21 18 00 06 35 33
[USB3]$GPGGA,185429.90,5104.7347063,N,11407.8534989,W,1,24,0.7,1123.265,M,-16.60,M,,*5A
<BESTPOS USB3 0 66.5 FINESTEERING 2354 586487.900 02000000 cdba 17399
<     SOL_COMPUTED SINGLE 51.07891177247 -114.13089164814 1123.2647 -16.6000 WGS84 1.7688 1.6581 2.8485 "" 0.000 0.000 26 24 24 19 00 06 35 33
[USB3]$GPGGA,185430.00,5104.7334960,N,11407.8546434,W,1,25,0.6,1119.063,M,-16.60,M,,*56
<BESTPOS USB3 0 66.5 FINESTEERING 2354 586488.000 02000000 cdba 17399
<     SOL_COMPUTED SINGLE 51.07889160003 -114.13091072328 1119.0630 -16.6000 WGS84 1.8556 1.7040 3.0780 "" 0.000 0.000 27 25 25 19 00 06 35 33
[USB3]$GPGGA,185430.10,5104.7344826,N,11407.8535010,W,1,26,0.6,1122.771,M,-16.60,M,,*5A
<BESTPOS USB3 0 64.0 FINESTEERING 2354 586488.100 02000000 cdba 17399
<     SOL_COMPUTED SINGLE 51.07890804333 -114.13089168389 1122.7708 -16.6000 WGS84 1.7471 1.5890 2.7923 "" 0.000 0.000 28 26 26 18 00 06 35 33
[USB3]$GPGGA,185430.20,5104.7341808,N,11407.8525815,W,1,26,0.6,1123.862,M,-16.60,M,,*50
<BESTPOS USB3 0 64.0 FINESTEERING 2354 586488.200 02000000 cdba 17399
<     SOL_COMPUTED SINGLE 51.07890301286 -114.13087635810 1123.8617 -16.6000 WGS84 1.6398 1.3710 2.6182 "" 0.000 0.000 28 26 26 21 00 06 35 33
[USB3]$GPGGA,185430.30,5104.7344567,N,11407.8523693,W,1,25,0.6,1124.046,M,-16.60,M,,*5C
<BESTPOS USB3 0 64.0 FINESTEERING 2354 586488.300 02000000 cdba 17399
<     SOL_COMPUTED SINGLE 51.07890761126 -114.13087282121 1124.0461 -16.6000 WGS84 1.6510 1.3978 2.6390 "" 0.000 0.000 27 25 25 20 00 06 35 33
[USB3]$GPGGA,185430.40,5104.7344659,N,11407.8530256,W,1,26,0.6,1123.005,M,-16.60,M,,*59
<BESTPOS USB3 0 64.0 FINESTEERING 2354 586488.400 02000000 cdba 17399
<     SOL_COMPUTED SINGLE 51.07890776493 -114.13088376070 1123.0047 -16.6000 WGS84 1.7349 1.5925 2.7837 "" 0.000 0.000 28 26 26 21 00 06 35 33
[USB3]$GPGGA,185430.50,5104.7339725,N,11407.8518584,W,1,27,0.6,1124.330,M,-16.60,M,,*59
<BESTPOS USB3 0 64.0 FINESTEERING 2354 586488.500 02000000 cdba 17399
<     SOL_COMPUTED SINGLE 51.07889954157 -114.13086430697 1124.3304 -16.6000 WGS84 1.6321 1.3615 2.6108 "" 0.000 0.000 30 27 27 22 00 06 35 37
[USB3]$GPGGA,185430.60,5104.7342464,N,11407.8511010,W,1,26,0.6,1125.039,M,-16.60,M,,*5B
<BESTPOS USB3 0 64.0 FINESTEERING 2354 586488.600 02000000 cdba 17399
<     SOL_COMPUTED SINGLE 51.07890410689 -114.13085168306 1125.0390 -16.6000 WGS84 1.6097 1.3960 2.6330 "" 0.000 0.000 29 26 26 22 00 06 35 37
[USB3]$GPGGA,185430.70,5104.7344932,N,11407.8513892,W,1,27,0.6,1124.757,M,-16.60,M,,*5D
<BESTPOS USB3 0 64.0 FINESTEERING 2354 586488.700 02000000 cdba 17399
<     SOL_COMPUTED SINGLE 51.07890821984 -114.13085648632 1124.7569 -16.6000 WGS84 1.6378 1.4492 2.6611 "" 0.000 0.000 30 27 27 22 00 06 35 37
[USB3]$GPGGA,185430.80,5104.7341318,N,11407.8514874,W,1,27,0.6,1123.987,M,-16.60,M,,*5E
<BESTPOS USB3 0 64.0 FINESTEERING 2354 586488.800 02000000 cdba 17399
<     SOL_COMPUTED SINGLE 51.07890219698 -114.13085812311 1123.9866 -16.6000 WGS84 1.6202 1.4187 2.6542 "" 0.000 0.000 29 27 27 22 00 06 35 37
[USB3]$GPGGA,185430.90,5104.7337813,N,11407.8527273,W,1,25,0.6,1120.323,M,-16.60,M,,*56
<BESTPOS USB3 0 64.0 FINESTEERING 2354 586488.900 02000000 cdba 17399
<     SOL_COMPUTED SINGLE 51.07889635422 -114.13087878884 1120.3229 -16.6000 WGS84 1.7287 1.6096 2.8546 "" 0.000 0.000 28 25 25 22 00 06 35 33
[USB3]$GPGGA,185431.00,5104.7338937,N,11407.8528262,W,1,25,0.6,1120.403,M,-16.60,M,,*5C
<BESTPOS USB3 0 64.0 FINESTEERING 2354 586489.000 02000000 cdba 17399
<     SOL_COMPUTED SINGLE 51.07889822855 -114.13088043606 1120.4028 -16.6000 WGS84 1.5255 1.3226 2.8203 "" 0.000 0.000 28 25 25 23 00 06 35 33
[USB3]$GPGGA,185431.10,5104.7342736,N,11407.8508495,W,1,24,0.7,1123.746,M,-16.60,M,,*52
<BESTPOS USB3 0 64.0 FINESTEERING 2354 586489.100 02000000 cdba 17399
<     SOL_COMPUTED SINGLE 51.07890455951 -114.13084749199 1123.7461 -16.6000 WGS84 1.4959 1.2435 2.6971 "" 0.000 0.000 26 24 24 21 00 06 35 33
[USB3]$GPGGA,185431.20,5104.7341785,N,11407.8514192,W,1,25,0.7,1124.225,M,-16.60,M,,*53
<BESTPOS USB3 0 62.0 FINESTEERING 2354 586489.200 02000000 cdba 17399
<     SOL_COMPUTED SINGLE 51.07890297532 -114.13085698731 1124.2249 -16.6000 WGS84 1.4550 1.1545 2.6050 "" 0.000 0.000 27 25 25 24 00 06 35 33
[USB3]$GPGGA,185431.30,5104.7343816,N,11407.8507261,W,1,24,0.7,1125.038,M,-16.60,M,,*56
<BESTPOS USB3 0 62.0 FINESTEERING 2354 586489.300 02000000 cdba 17399
<     SOL_COMPUTED SINGLE 51.07890636070 -114.13084543560 1125.0382 -16.6000 WGS84 1.4745 1.1722 2.6108 "" 0.000 0.000 26 24 24 23 00 06 35 33
[USB3]$GPGGA,185431.40,5104.7341687,N,11407.8510294,W,1,25,0.7,1124.330,M,-16.60,M,,*52
<BESTPOS USB3 0 62.0 FINESTEERING 2354 586489.400 02000000 cdba 17399
<     SOL_COMPUTED SINGLE 51.07890281152 -114.13085048947 1124.3299 -16.6000 WGS84 1.4564 1.1571 2.6008 "" 0.000 0.000 26 25 25 23 00 06 35 33
[USB3]$GPGGA,185431.50,5104.7347051,N,11407.8519278,W,1,24,0.7,1122.730,M,-16.60,M,,*50
<BESTPOS USB3 0 62.0 FINESTEERING 2354 586489.500 02000000 cdba 17399
<     SOL_COMPUTED SINGLE 51.07891175200 -114.13086546408 1122.7297 -16.6000 WGS84 1.5031 1.3198 2.7831 "" 0.000 0.000 26 24 24 23 00 06 35 33
[USB3]$GPGGA,185431.60,5104.7332870,N,11407.8513750,W,1,25,0.7,1121.226,M,-16.60,M,,*5F
<BESTPOS USB3 0 62.0 FINESTEERING 2354 586489.600 02000000 cdba 17399
<     SOL_COMPUTED SINGLE 51.07888811629 -114.13085625021 1121.2258 -16.6000 WGS84 1.4805 1.1788 2.6493 "" 0.000 0.000 27 25 25 24 00 06 35 33
[USB3]$GPGGA,185431.70,5104.7345447,N,11407.8513277,W,1,25,0.7,1123.522,M,-16.60,M,,*57
<BESTPOS USB3 0 62.0 FINESTEERING 2354 586489.700 02000000 cdba 17399
<     SOL_COMPUTED SINGLE 51.07890907884 -114.13085546087 1123.5222 -16.6000 WGS84 1.4534 1.1847 2.6258 "" 0.000 0.000 27 25 25 24 00 06 35 33
[USB3]$GPGGA,185431.80,5104.7345799,N,11407.8512398,W,1,25,0.7,1123.611,M,-16.60,M,,*5A
<BESTPOS USB3 0 62.0 FINESTEERING 2354 586489.800 02000000 cdba 17399
<     SOL_COMPUTED SINGLE 51.07890966450 -114.13085399642 1123.6110 -16.6000 WGS84 1.4460 1.1781 2.6144 "" 0.000 0.000 27 25 25 24 00 06 35 33
[USB3]$GPGGA,185431.90,5104.7346160,N,11407.8511713,W,1,25,0.7,1123.471,M,-16.60,M,,*58
<BESTPOS USB3 0 62.0 FINESTEERING 2354 586489.900 02000000 cdba 17399
<     SOL_COMPUTED SINGLE 51.07891026643 -114.13085285418 1123.4709 -16.6000 WGS84 1.4462 1.1807 2.6149 "" 0.000 0.000 27 25 25 24 00 06 35 33
[USB3]$GPGGA,185432.00,5104.7345838,N,11407.8510224,W,1,26,0.6,1123.500,M,-16.60,M,,*50
<BESTPOS USB3 0 62.0 FINESTEERING 2354 586490.000 02000000 cdba 17399
<     SOL_COMPUTED SINGLE 51.07890972965 -114.13085037395 1123.5002 -16.6000 WGS84 1.4430 1.1679 2.5976 "" 0.000 0.000 28 26 26 24 00 06 35 33
[USB3]$GPGGA,185432.10,5104.7334158,N,11407.8514560,W,1,26,0.6,1119.907,M,-16.60,M,,*59
<BESTPOS USB3 0 55.5 FINESTEERING 2354 586490.100 02000000 cdba 17399
<     SOL_COMPUTED SINGLE 51.07889026413 -114.13085760074 1119.9074 -16.6000 WGS84 1.4700 1.1686 2.6271 "" 0.000 0.000 29 26 26 25 00 06 35 33
[USB3]$GPGGA,185432.20,5104.7348937,N,11407.8514056,W,1,27,0.6,1122.608,M,-16.60,M,,*59
<BESTPOS USB3 0 55.5 FINESTEERING 2354 586490.200 02000000 cdba 17399
<     SOL_COMPUTED SINGLE 51.07891489569 -114.13085676019 1122.6078 -16.6000 WGS84 1.4959 1.3121 2.7614 "" 0.000 0.000 30 27 27 24 00 06 35 33
[USB3]$GPGGA,185432.30,5104.7349186,N,11407.8513975,W,1,27,0.6,1122.637,M,-16.60,M,,*58
<BESTPOS USB3 0 55.5 FINESTEERING 2354 586490.300 02000000 cdba 17399
<     SOL_COMPUTED SINGLE 51.07891531069 -114.13085662498 1122.6367 -16.6000 WGS84 1.4992 1.3212 2.7643 "" 0.000 0.000 28 27 27 23 00 06 35 33
[USB3]$GPGGA,185432.40,5104.7335981,N,11407.8516809,W,1,28,0.5,1118.828,M,-16.60,M,,*51
<BESTPOS USB3 0 55.5 FINESTEERING 2354 586490.400 02000000 cdba 17399
<     SOL_COMPUTED SINGLE 51.07889330208 -114.13086134813 1118.8281 -16.6000 WGS84 1.5178 1.3110 2.7881 "" 0.000 0.000 30 28 28 23 00 06 35 33
[USB3]$GPGGA,185432.50,5104.7349959,N,11407.8501130,W,1,25,0.6,1124.325,M,-16.60,M,,*5C
<BESTPOS USB3 0 55.5 FINESTEERING 2354 586490.500 02000000 cdba 17399
<     SOL_COMPUTED SINGLE 51.07891659916 -114.13083521613 1124.3248 -16.6000 WGS84 1.4993 1.4849 2.9421 "" 0.000 0.000 27 25 25 21 00 06 35 33
[USB3]$GPGGA,185432.60,5104.7350021,N,11407.8508139,W,1,27,0.6,1123.377,M,-16.60,M,,*53
<BESTPOS USB3 0 55.5 FINESTEERING 2354 586490.600 02000000 cdba 17399
<     SOL_COMPUTED SINGLE 51.07891670152 -114.13084689874 1123.3772 -16.6000 WGS84 1.4894 1.3392 2.7986 "" 0.000 0.000 29 27 27 23 00 06 35 33
[USB3]$GPGGA,185432.70,5104.7350008,N,11407.8507502,W,1,26,0.6,1123.390,M,-16.60,M,,*52
<BESTPOS USB3 0 55.5 FINESTEERING 2354 586490.700 02000000 cdba 17399
<     SOL_COMPUTED SINGLE 51.07891667930 -114.13084583634 1123.3904 -16.6000 WGS84 1.4883 1.3392 2.7989 "" 0.000 0.000 27 26 26 23 00 06 35 33
[USB3]$GPGGA,185432.80,5104.7350419,N,11407.8507667,W,1,26,0.6,1123.320,M,-16.60,M,,*52
<BESTPOS USB3 0 55.5 FINESTEERING 2354 586490.800 02000000 cdba 17399
<     SOL_COMPUTED SINGLE 51.07891736546 -114.13084611185 1123.3201 -16.6000 WGS84 1.4859 1.3349 2.7976 "" 0.000 0.000 27 26 26 24 00 06 35 33
[USB3]$GPGGA,185432.90,5104.7351475,N,11407.8501941,W,1,25,0.6,1124.493,M,-16.60,M,,*5E
<BESTPOS USB3 0 55.5 FINESTEERING 2354 586490.900 02000000 cdba 17399
<     SOL_COMPUTED SINGLE 51.07891912449 -114.13083656837 1124.4932 -16.6000 WGS84 1.5019 1.3930 2.8478 "" 0.000 0.000 27 25 25 23 00 06 35 33
[USB3]$GPGGA,185433.00,5104.7351742,N,11407.8501678,W,1,26,0.6,1124.372,M,-16.60,M,,*5F
<BESTPOS USB3 0 55.5 FINESTEERING 2354 586491.000 02000000 cdba 17399
<     SOL_COMPUTED SINGLE 51.07891956965 -114.13083613036 1124.3717 -16.6000 WGS84 1.5027 1.3742 2.8388 "" 0.000 0.000 28 26 26 25 00 06 35 33
[USB3]$GPGGA,185433.10,5104.7338607,N,11407.8474381,W,1,26,0.6,1126.901,M,-16.60,M,,*5D
<BESTPOS USB3 0 55.5 FINESTEERING 2354 586491.100 02000000 cdba 17399
<     SOL_COMPUTED SINGLE 51.07889767878 -114.13079063579 1126.9008 -16.6000 WGS84 1.4682 1.2657 2.6545 "" 0.000 0.000 28 26 26 24 00 06 35 33
[USB3]$GPGGA,185433.20,5104.7338975,N,11407.8510898,W,1,24,0.6,1119.435,M,-16.60,M,,*50
<BESTPOS USB3 0 58.5 FINESTEERING 2354 586491.200 02000000 cdba 17399
<     SOL_COMPUTED SINGLE 51.07889829224 -114.13085149647 1119.4349 -16.6000 WGS84 1.5249 1.4107 2.9018 "" 0.000 0.000 26 24 24 23 00 06 35 33
[USB3]$GPGGA,185433.30,5104.7345543,N,11407.8482917,W,1,26,0.6,1127.655,M,-16.60,M,,*55
<BESTPOS USB3 0 58.5 FINESTEERING 2354 586491.300 02000000 cdba 17399
<     SOL_COMPUTED SINGLE 51.07890923896 -114.13080486201 1127.6553 -16.6000 WGS84 1.4404 1.2724 2.6580 "" 0.000 0.000 28 26 26 23 00 06 35 33
[USB3]$GPGGA,185433.40,5104.7346851,N,11407.8486219,W,1,27,0.6,1127.210,M,-16.60,M,,*5A
<BESTPOS USB3 0 58.5 FINESTEERING 2354 586491.400 02000000 cdba 17399
<     SOL_COMPUTED SINGLE 51.07891141824 -114.13081036439 1127.2100 -16.6000 WGS84 1.4466 1.2739 2.6689 "" 0.000 0.000 29 27 27 23 00 06 35 33
[USB3]$GPGGA,185433.50,5104.7353450,N,11407.8500667,W,1,27,0.6,1124.299,M,-16.60,M,,*52
<BESTPOS USB3 0 58.5 FINESTEERING 2354 586491.500 02000000 cdba 17399
<     SOL_COMPUTED SINGLE 51.07892241665 -114.13083444532 1124.2988 -16.6000 WGS84 1.4929 1.3771 2.8290 "" 0.000 0.000 28 27 27 23 00 06 35 33
[USB3]$GPGGA,185433.60,5104.7352931,N,11407.8499440,W,1,27,0.6,1124.301,M,-16.60,M,,*5C
<BESTPOS USB3 0 58.5 FINESTEERING 2354 586491.600 02000000 cdba 17399
<     SOL_COMPUTED SINGLE 51.07892155127 -114.13083240005 1124.3014 -16.6000 WGS84 1.4863 1.3628 2.8171 "" 0.000 0.000 28 27 27 24 00 06 35 33
[USB3]$GPGGA,185433.70,5104.7349842,N,11407.8502432,W,1,27,0.6,1123.444,M,-16.60,M,,*55
<BESTPOS USB3 0 58.5 FINESTEERING 2354 586491.700 02000000 cdba 17399
<     SOL_COMPUTED SINGLE 51.07891640267 -114.13083738589 1123.4435 -16.6000 WGS84 1.4685 1.3064 2.7656 "" 0.000 0.000 29 27 27 24 00 06 35 33
[USB3]$GPGGA,185433.80,5104.7349247,N,11407.8499935,W,1,26,0.6,1123.678,M,-16.60,M,,*50
<BESTPOS USB3 0 58.5 FINESTEERING 2354 586491.800 02000000 cdba 17399
<     SOL_COMPUTED SINGLE 51.07891541129 -114.13083322431 1123.6777 -16.6000 WGS84 1.4638 1.3114 2.7774 "" 0.000 0.000 28 26 26 24 00 06 35 33
[USB3]$GPGGA,185433.90,5104.7350484,N,11407.8493954,W,1,24,0.6,1124.315,M,-16.60,M,,*56
<BESTPOS USB3 0 58.5 FINESTEERING 2354 586491.900 02000000 cdba 17399
<     SOL_COMPUTED SINGLE 51.07891747283 -114.13082325670 1124.3150 -16.6000 WGS84 1.4662 1.4274 2.8956 "" 0.000 0.000 26 24 24 21 00 06 35 33
[USB3]$GPGGA,185434.00,5104.7352765,N,11407.8503583,W,1,23,0.7,1122.176,M,-16.60,M,,*5F
<BESTPOS USB3 0 58.5 FINESTEERING 2354 586492.000 02000000 cdba 17399
<     SOL_COMPUTED SINGLE 51.07892127565 -114.13083930452 1122.1758 -16.6000 WGS84 1.4848 1.3354 2.7738 "" 0.000 0.000 25 23 23 21 00 06 35 33
[USB3]$GPGGA,185434.10,5104.7352915,N,11407.8493523,W,1,23,0.7,1121.955,M,-16.60,M,,*5F
<BESTPOS USB3 0 58.5 FINESTEERING 2354 586492.100 02000000 cdba 17399
<     SOL_COMPUTED SINGLE 51.07892152448 -114.13082253784 1121.9545 -16.6000 WGS84 1.4970 1.3467 2.8062 "" 0.000 0.000 26 23 23 21 00 06 35 33
[USB3]$GPGGA,185434.20,5104.7353321,N,11407.8492772,W,1,23,0.7,1121.918,M,-16.60,M,,*5E
<BESTPOS USB3 0 60.0 FINESTEERING 2354 586492.200 02000000 cdba 17399
<     SOL_COMPUTED SINGLE 51.07892220112 -114.13082128642 1121.9184 -16.6000 WGS84 1.4959 1.3443 2.8027 "" 0.000 0.000 26 23 23 22 00 06 35 33
[USB3]$GPGGA,185434.30,5104.7349198,N,11407.8487619,W,1,24,0.6,1120.469,M,-16.60,M,,*50
<BESTPOS USB3 0 60.0 FINESTEERING 2354 586492.300 02000000 cdba 17399
<     SOL_COMPUTED SINGLE 51.07891532996 -114.13081269850 1120.4695 -16.6000 WGS84 1.5267 1.3563 2.8060 "" 0.000 0.000 26 24 24 22 00 06 35 33
[USB3]$GPGGA,185434.40,5104.7353879,N,11407.8491259,W,1,24,0.7,1121.791,M,-16.60,M,,*59
<BESTPOS USB3 0 60.0 FINESTEERING 2354 586492.400 02000000 cdba 17399
<     SOL_COMPUTED SINGLE 51.07892313147 -114.13081876459 1121.7912 -16.6000 WGS84 1.4926 1.3347 2.7903 "" 0.000 0.000 26 24 24 22 00 06 35 33
[USB3]$GPGGA,185434.50,5104.7353395,N,11407.8492190,W,1,24,0.7,1121.429,M,-16.60,M,,*54
<BESTPOS USB3 0 60.0 FINESTEERING 2354 586492.500 02000000 cdba 17399
<     SOL_COMPUTED SINGLE 51.07892232496 -114.13082031705 1121.4289 -16.6000 WGS84 1.4837 1.2993 2.7564 "" 0.000 0.000 26 24 24 24 00 06 35 33
[USB3]$GPGGA,185434.60,5104.7353315,N,11407.8485752,W,1,23,0.7,1122.581,M,-16.60,M,,*56
<BESTPOS USB3 0 60.0 FINESTEERING 2354 586492.600 02000000 cdba 17399
<     SOL_COMPUTED SINGLE 51.07892219184 -114.13080958705 1122.5807 -16.6000 WGS84 1.4769 1.4649 2.9313 "" 0.000 0.000 25 23 23 23 00 06 35 33
[USB3]$GPGGA,185434.70,5104.7353597,N,11407.8490609,W,1,25,0.6,1121.764,M,-16.60,M,,*5D
<BESTPOS USB3 0 60.0 FINESTEERING 2354 586492.700 02000000 cdba 17399
<     SOL_COMPUTED SINGLE 51.07892266134 -114.13081768194 1121.7640 -16.6000 WGS84 1.4732 1.3005 2.7544 "" 0.000 0.000 26 25 25 24 00 06 35 33
[USB3]$GPGGA,185434.80,5104.7353989,N,11407.8484330,W,1,24,0.6,1122.685,M,-16.60,M,,*57
<BESTPOS USB3 0 60.0 FINESTEERING 2354 586492.800 02000000 cdba 17399
<     SOL_COMPUTED SINGLE 51.07892331538 -114.13080721662 1122.6853 -16.6000 WGS84 1.4723 1.4563 2.9168 "" 0.000 0.000 25 24 24 22 00 06 35 33
[USB3]$GPGGA,185434.90,5104.7343274,N,11407.8493505,W,1,25,0.6,1118.416,M,-16.60,M,,*58
<BESTPOS USB3 0 60.0 FINESTEERING 2354 586492.900 02000000 cdba 17399
<     SOL_COMPUTED SINGLE 51.07890545685 -114.13082250876 1118.4162 -16.6000 WGS84 1.5986 1.4177 3.0797 "" 0.000 0.000 27 25 25 23 00 06 35 33
[USB3]$GPGGA,185435.00,5104.7354651,N,11407.8488554,W,1,24,0.7,1121.596,M,-16.60,M,,*58
<BESTPOS USB3 0 60.0 FINESTEERING 2354 586493.000 02000000 cdba 17399
<     SOL_COMPUTED SINGLE 51.07892441882 -114.13081425637 1121.5964 -16.6000 WGS84 1.4747 1.3238 2.7825 "" 0.000 0.000 26 24 24 24 00 06 35 33
[USB3]$GPGGA,185435.10,5104.7355218,N,11407.8493518,W,1,24,0.6,1122.226,M,-16.60,M,,*5D
<BESTPOS USB3 0 60.0 FINESTEERING 2354 586493.100 02000000 cdba 17399
<     SOL_COMPUTED SINGLE 51.07892536261 -114.13082253082 1122.2258 -16.6000 WGS84 1.4618 1.3574 2.7851 "" 0.000 0.000 26 24 24 23 00 06 35 33
[USB3]$GPGGA,185435.20,5104.7355742,N,11407.8492023,W,1,25,0.6,1122.445,M,-16.60,M,,*5A
<BESTPOS USB3 0 62.5 FINESTEERING 2354 586493.200 02000000 cdba 17399
<     SOL_COMPUTED SINGLE 51.07892623700 -114.13082003849 1122.4449 -16.6000 WGS84 1.4592 1.3802 2.8031 "" 0.000 0.000 27 25 25 22 00 06 35 33
[USB3]$GPGGA,185435.30,5104.7350976,N,11407.8482344,W,1,27,0.6,1120.996,M,-16.60,M,,*57
<BESTPOS USB3 0 62.5 FINESTEERING 2354 586493.300 02000000 cdba 17399
<     SOL_COMPUTED SINGLE 51.07891829316 -114.13080390724 1120.9955 -16.6000 WGS84 1.4694 1.3435 2.7888 "" 0.000 0.000 29 27 27 23 00 06 35 33
[USB3]$GPGGA,185435.40,5104.7355762,N,11407.8484476,W,1,26,0.6,1123.123,M,-16.60,M,,*5A
<BESTPOS USB3 0 62.5 FINESTEERING 2354 586493.400 02000000 cdba 17399
<     SOL_COMPUTED SINGLE 51.07892626959 -114.13080746020 1123.1227 -16.6000 WGS84 1.4533 1.4425 2.8941 "" 0.000 0.000 28 26 26 22 00 06 35 33
[USB3]$GPGGA,185435.50,5104.7356631,N,11407.8484542,W,1,24,0.6,1123.062,M,-16.60,M,,*5F
<BESTPOS USB3 0 62.5 FINESTEERING 2354 586493.500 02000000 cdba 17399
<     SOL_COMPUTED SINGLE 51.07892771763 -114.13080757035 1123.0621 -16.6000 WGS84 1.4549 1.4464 2.9031 "" 0.000 0.000 26 24 24 22 00 06 35 33
[USB3]$GPGGA,185435.60,5104.7356810,N,11407.8486602,W,1,24,0.7,1122.431,M,-16.60,M,,*56
<BESTPOS USB3 0 62.5 FINESTEERING 2354 586493.600 02000000 cdba 17399
<     SOL_COMPUTED SINGLE 51.07892801689 -114.13081100347 1122.4308 -16.6000 WGS84 1.4568 1.2838 2.7394 "" 0.000 0.000 26 24 24 23 00 06 35 33
[USB3]$GPGGA,185435.70,5104.7357214,N,11407.8486070,W,1,23,0.7,1122.450,M,-16.60,M,,*5B
<BESTPOS USB3 0 62.5 FINESTEERING 2354 586493.700 02000000 cdba 17399
<     SOL_COMPUTED SINGLE 51.07892868958 -114.13081011603 1122.4504 -16.6000 WGS84 1.4574 1.3093 2.7439 "" 0.000 0.000 25 23 23 22 00 06 35 33
[USB3]$GPGGA,185435.80,5104.7358804,N,11407.8482339,W,1,24,0.6,1123.113,M,-16.60,M,,*5F
<BESTPOS USB3 0 62.5 FINESTEERING 2354 586493.800 02000000 cdba 17399
<     SOL_COMPUTED SINGLE 51.07893134014 -114.13080389778 1123.1126 -16.6000 WGS84 1.4667 1.3294 2.7762 "" 0.000 0.000 26 24 24 21 00 06 35 33
[USB3]$GPGGA,185435.90,5104.7359245,N,11407.8483728,W,1,24,0.6,1122.823,M,-16.60,M,,*5E
<BESTPOS USB3 0 62.5 FINESTEERING 2354 586493.900 02000000 cdba 17399
<     SOL_COMPUTED SINGLE 51.07893207494 -114.13080621367 1122.8232 -16.6000 WGS84 1.4673 1.3268 2.7742 "" 0.000 0.000 26 24 24 22 00 06 35 33
[USB3]$GPGGA,185436.00,5104.7359974,N,11407.8485431,W,1,23,0.7,1122.344,M,-16.60,M,,*5C
<BESTPOS USB3 0 62.5 FINESTEERING 2354 586494.000 02000000 cdba 17399
<     SOL_COMPUTED SINGLE 51.07893329046 -114.13080905133 1122.3441 -16.6000 WGS84 1.4678 1.3303 2.7783 "" 0.000 0.000 25 23 23 23 00 06 35 33
[USB3]$GPGGA,185436.10,5104.7349192,N,11407.8465277,W,1,25,0.6,1124.359,M,-16.60,M,,*5B
<BESTPOS USB3 0 51.5 FINESTEERING 2354 586494.100 02000000 cdba 17399
<     SOL_COMPUTED SINGLE 51.07891531986 -114.13077546109 1124.3595 -16.6000 WGS84 1.4391 1.2601 2.6550 "" 0.000 0.000 27 25 25 22 00 06 35 33
[USB3]$GPGGA,185436.20,5104.7360425,N,11407.8487997,W,1,23,0.7,1121.726,M,-16.60,M,,*5D
<BESTPOS USB3 0 51.5 FINESTEERING 2354 586494.200 02000000 cdba 17399
<     SOL_COMPUTED SINGLE 51.07893404239 -114.13081332822 1121.7262 -16.6000 WGS84 1.4674 1.3291 2.7781 "" 0.000 0.000 26 23 23 22 00 06 35 33
[USB3]$GPGGA,185436.30,5104.7360600,N,11407.8488666,W,1,23,0.7,1121.484,M,-16.60,M,,*5C
<BESTPOS USB3 0 51.5 FINESTEERING 2354 586494.300 02000000 cdba 17399
<     SOL_COMPUTED SINGLE 51.07893433384 -114.13081444358 1121.4843 -16.6000 WGS84 1.4676 1.3297 2.7784 "" 0.000 0.000 26 23 23 22 00 06 35 33
[USB3]$GPGGA,185436.40,5104.7360865,N,11407.8488801,W,1,24,0.7,1121.464,M,-16.60,M,,*50
<BESTPOS USB3 0 51.5 FINESTEERING 2354 586494.400 02000000 cdba 17399
<     SOL_COMPUTED SINGLE 51.07893477431 -114.13081466841 1121.4644 -16.6000 WGS84 1.4657 1.3262 2.7737 "" 0.000 0.000 27 24 24 23 00 06 35 33
[USB3]$GPGGA,185436.50,5104.7362114,N,11407.8490295,W,1,24,0.7,1121.272,M,-16.60,M,,*53
<BESTPOS USB3 0 51.5 FINESTEERING 2354 586494.500 02000000 cdba 17399
<     SOL_COMPUTED SINGLE 51.07893685618 -114.13081715778 1121.2725 -16.6000 WGS84 1.4826 1.3438 2.7762 "" 0.000 0.000 26 24 24 23 00 06 35 33
[USB3]$GPGGA,185436.60,5104.7357769,N,11407.8484060,W,1,23,0.7,1119.918,M,-16.60,M,,*5C
<BESTPOS USB3 0 51.5 FINESTEERING 2354 586494.600 02000000 cdba 17399
<     SOL_COMPUTED SINGLE 51.07892961429 -114.13080676710 1119.9183 -16.6000 WGS84 1.4795 1.3460 2.7869 "" 0.000 0.000 25 23 23 22 00 06 35 33
[USB3]$GPGGA,185436.70,5104.7360188,N,11407.8490161,W,1,23,0.7,1120.517,M,-16.60,M,,*5C
<BESTPOS USB3 0 51.5 FINESTEERING 2354 586494.700 02000000 cdba 17399
<     SOL_COMPUTED SINGLE 51.07893364587 -114.13081693580 1120.5167 -16.6000 WGS84 1.4584 1.3106 2.7431 "" 0.000 0.000 26 23 23 23 00 06 35 33
[USB3]$GPGGA,185436.80,5104.7360165,N,11407.8489958,W,1,24,0.7,1120.343,M,-16.60,M,,*5A
<BESTPOS USB3 0 51.5 FINESTEERING 2354 586494.800 02000000 cdba 17399
<     SOL_COMPUTED SINGLE 51.07893360858 -114.13081659738 1120.3426 -16.6000 WGS84 1.4563 1.3065 2.7383 "" 0.000 0.000 27 24 24 22 00 06 35 33
[USB3]$GPGGA,185436.90,5104.7361140,N,11407.8490705,W,1,25,0.6,1120.518,M,-16.60,M,,*5B
<BESTPOS USB3 0 51.5 FINESTEERING 2354 586494.900 02000000 cdba 17399
<     SOL_COMPUTED SINGLE 51.07893523345 -114.13081784089 1120.5179 -16.6000 WGS84 1.4489 1.2987 2.7304 "" 0.000 0.000 28 25 25 24 00 06 35 33
[USB3]$GPGGA,185437.00,5104.7360947,N,11407.8487881,W,1,26,0.6,1121.135,M,-16.60,M,,*51
<BESTPOS USB3 0 51.5 FINESTEERING 2354 586495.000 02000000 cdba 17399
<     SOL_COMPUTED SINGLE 51.07893491127 -114.13081313466 1121.1346 -16.6000 WGS84 1.4557 1.3036 2.7146 "" 0.000 0.000 29 26 26 25 00 06 35 33
[USB3]$GPGGA,185437.10,5104.7363117,N,11407.8490224,W,1,25,0.6,1120.698,M,-16.60,M,,*5F
<BESTPOS USB3 0 51.5 FINESTEERING 2354 586495.100 02000000 cdba 17399
<     SOL_COMPUTED SINGLE 51.07893852887 -114.13081703964 1120.6984 -16.6000 WGS84 1.4623 1.3185 2.7319 "" 0.000 0.000 28 25 25 24 00 06 35 33
[USB3]$GPGGA,185437.20,5104.7352807,N,11407.8463890,W,1,25,0.7,1125.296,M,-16.60,M,,*51
<BESTPOS USB3 0 52.0 FINESTEERING 2354 586495.200 02000000 cdba 17399
<     SOL_COMPUTED SINGLE 51.07892134574 -114.13077315028 1125.2955 -16.6000 WGS84 1.4118 1.1875 2.5879 "" 0.000 0.000 28 25 25 24 00 06 35 33
[USB3]$GPGGA,185437.30,5104.7363288,N,11407.8487805,W,1,24,0.7,1120.829,M,-16.60,M,,*53
<BESTPOS USB3 0 52.0 FINESTEERING 2354 586495.300 02000000 cdba 17399
<     SOL_COMPUTED SINGLE 51.07893881278 -114.13081300916 1120.8286 -16.6000 WGS84 1.4646 1.3190 2.7330 "" 0.000 0.000 27 24 24 22 00 06 35 33
[USB3]$GPGGA,185437.40,5104.7352603,N,11407.8460321,W,1,24,0.7,1125.696,M,-16.60,M,,*5A
<BESTPOS USB3 0 52.0 FINESTEERING 2354 586495.400 02000000 cdba 17399
<     SOL_COMPUTED SINGLE 51.07892100525 -114.13076720205 1125.6964 -16.6000 WGS84 1.4078 1.1806 2.5814 "" 0.000 0.000 27 24 24 24 00 06 35 33
[USB3]$GPGGA,185437.50,5104.7352458,N,11407.8457369,W,1,26,0.6,1126.039,M,-16.60,M,,*5C
<BESTPOS USB3 0 52.0 FINESTEERING 2354 586495.500 02000000 cdba 17399
<     SOL_COMPUTED SINGLE 51.07892076259 -114.13076228181 1126.0388 -16.6000 WGS84 1.4029 1.1680 2.5637 "" 0.000 0.000 29 26 26 24 00 06 35 33
[USB3]$GPGGA,185437.60,5104.7352282,N,11407.8455721,W,1,26,0.6,1127.005,M,-16.60,M,,*5A
<BESTPOS USB3 0 52.0 FINESTEERING 2354 586495.600 02000000 cdba 17399
<     SOL_COMPUTED SINGLE 51.07892047067 -114.13075953567 1127.0048 -16.6000 WGS84 1.3957 1.1456 2.5424 "" 0.000 0.000 29 26 26 23 00 06 35 33
[USB3]$GPGGA,185437.70,5104.7353068,N,11407.8458800,W,1,25,0.7,1126.894,M,-16.60,M,,*5E
<BESTPOS USB3 0 52.0 FINESTEERING 2354 586495.700 02000000 cdba 17399
<     SOL_COMPUTED SINGLE 51.07892177943 -114.13076466679 1126.8939 -16.6000 WGS84 1.4002 1.1495 2.5531 "" 0.000 0.000 28 25 25 23 00 06 35 33
[USB3]$GPGGA,185437.80,5104.7354793,N,11407.8464193,W,1,25,0.7,1127.323,M,-16.60,M,,*5F
<BESTPOS USB3 0 52.0 FINESTEERING 2354 586495.800 02000000 cdba 17399
<     SOL_COMPUTED SINGLE 51.07892465438 -114.13077365479 1127.3231 -16.6000 WGS84 1.4033 1.1480 2.5581 "" 0.000 0.000 28 25 25 22 00 06 35 33
[USB3]$GPGGA,185437.90,5104.7366787,N,11407.8492288,W,1,24,0.7,1122.559,M,-16.60,M,,*55
<BESTPOS USB3 0 52.0 FINESTEERING 2354 586495.900 02000000 cdba 17399
<     SOL_COMPUTED SINGLE 51.07894464523 -114.13082047954 1122.5586 -16.6000 WGS84 1.4616 1.2850 2.7230 "" 0.000 0.000 26 24 24 22 00 06 35 33
[USB3]$GPGGA,185438.00,5104.7367923,N,11407.8492925,W,1,24,0.7,1122.857,M,-16.60,M,,*5D
<BESTPOS USB3 0 52.0 FINESTEERING 2354 586496.000 02000000 cdba 17399
<     SOL_COMPUTED SINGLE 51.07894653807 -114.13082154148 1122.8567 -16.6000 WGS84 1.4592 1.2810 2.7197 "" 0.000 0.000 27 24 24 22 00 06 35 33
[USB3]$GPGGA,185438.10,5104.7360635,N,11407.8466293,W,1,24,0.7,1127.639,M,-16.60,M,,*5D
<BESTPOS USB3 0 52.0 FINESTEERING 2354 586496.100 02000000 cdba 17399
<     SOL_COMPUTED SINGLE 51.07893439225 -114.13077715444 1127.6390 -16.6000 WGS84 1.4227 1.2981 2.7097 "" 0.000 0.000 27 24 24 23 00 06 35 33
[USB3]$GPGGA,185438.20,5104.7355390,N,11407.8458714,W,1,25,0.7,1129.107,M,-16.60,M,,*50
<BESTPOS USB3 0 55.0 FINESTEERING 2354 586496.200 02000000 cdba 17399
<     SOL_COMPUTED SINGLE 51.07892564998 -114.13076452334 1129.1071 -16.6000 WGS84 1.3941 1.1253 2.5337 "" 0.000 0.000 28 25 25 24 00 06 35 33
[USB3]$GPGGA,185438.30,5104.7349017,N,11407.8447184,W,1,25,0.7,1126.473,M,-16.60,M,,*58
<BESTPOS USB3 0 55.0 FINESTEERING 2354 586496.300 02000000 cdba 17399
<     SOL_COMPUTED SINGLE 51.07891502879 -114.13074530659 1126.4729 -16.6000 WGS84 1.4329 1.1803 2.6082 "" 0.000 0.000 28 25 25 22 00 06 35 33
[USB3]$GPGGA,185438.40,5104.7361606,N,11407.8474764,W,1,24,0.7,1121.773,M,-16.60,M,,*5E
<BESTPOS USB3 0 55.0 FINESTEERING 2354 586496.400 02000000 cdba 17399
<     SOL_COMPUTED SINGLE 51.07893601057 -114.13079127366 1121.7728 -16.6000 WGS84 1.5040 1.3429 2.7678 "" 0.000 0.000 26 24 24 22 00 06 35 33
[USB3]$GPGGA,185438.50,5104.7359888,N,11407.8465807,W,1,24,0.7,1128.017,M,-16.60,M,,*5A
<BESTPOS USB3 0 55.0 FINESTEERING 2354 586496.500 02000000 cdba 17399
<     SOL_COMPUTED SINGLE 51.07893314722 -114.13077634429 1128.0170 -16.6000 WGS84 1.4017 1.1484 2.5618 "" 0.000 0.000 27 24 24 22 00 06 35 33
[USB3]$GPGGA,185438.60,5104.7352987,N,11407.8453987,W,1,25,0.7,1125.391,M,-16.60,M,,*51
<BESTPOS USB3 0 55.0 FINESTEERING 2354 586496.600 02000000 cdba 17399
<     SOL_COMPUTED SINGLE 51.07892164474 -114.13075664526 1125.3910 -16.6000 WGS84 1.4383 1.1987 2.6234 "" 0.000 0.000 28 25 25 22 00 06 35 33
[USB3]$GPGGA,185438.70,5104.7363211,N,11407.8471635,W,1,24,0.7,1126.942,M,-16.60,M,,*56
<BESTPOS USB3 0 55.0 FINESTEERING 2354 586496.700 02000000 cdba 17399
<     SOL_COMPUTED SINGLE 51.07893868580 -114.13078605776 1126.9419 -16.6000 WGS84 1.4149 1.1848 2.6033 "" 0.000 0.000 27 24 24 23 00 06 35 33
[USB3]$GPGGA,185438.80,5104.7370964,N,11407.8487945,W,1,23,0.7,1123.913,M,-16.60,M,,*55
<BESTPOS USB3 0 55.0 FINESTEERING 2354 586496.800 02000000 cdba 17399
<     SOL_COMPUTED SINGLE 51.07895160686 -114.13081324111 1123.9134 -16.6000 WGS84 1.4560 1.2896 2.7274 "" 0.000 0.000 26 23 23 23 00 06 35 33
[USB3]$GPGGA,185438.90,5104.7357525,N,11407.8443403,W,1,24,0.7,1126.932,M,-16.60,M,,*5E
<BESTPOS USB3 0 55.0 FINESTEERING 2354 586496.900 02000000 cdba 17399
<     SOL_COMPUTED SINGLE 51.07892920754 -114.13073900450 1126.9322 -16.6000 WGS84 1.3971 1.1724 2.5657 "" 0.000 0.000 28 24 24 22 00 06 35 33
[USB3]$GPGGA,185439.00,5104.7368837,N,11407.8468704,W,1,23,0.7,1122.261,M,-16.60,M,,*57
<BESTPOS USB3 0 55.0 FINESTEERING 2354 586497.000 02000000 cdba 17399
<     SOL_COMPUTED SINGLE 51.07894806169 -114.13078117334 1122.2610 -16.6000 WGS84 1.4572 1.3237 2.7322 "" 0.000 0.000 27 23 23 23 00 06 35 33
[USB3]$GPGGA,185439.10,5104.7368295,N,11407.8466503,W,1,23,0.7,1122.011,M,-16.60,M,,*5A
<BESTPOS USB3 0 52.0 FINESTEERING 2354 586497.100 02000000 cdba 17399
<     SOL_COMPUTED SINGLE 51.07894715895 -114.13077750421 1122.0112 -16.6000 WGS84 1.4610 1.3331 2.7390 "" 0.000 0.000 28 23 23 21 00 06 35 33
[USB3]$GPGGA,185439.20,5104.7359536,N,11407.8446459,W,1,22,0.7,1119.706,M,-16.60,M,,*51
<BESTPOS USB3 0 52.0 FINESTEERING 2354 586497.200 02000000 cdba 17399
<     SOL_COMPUTED SINGLE 51.07893256049 -114.13074409822 1119.7061 -16.6000 WGS84 1.5229 1.4267 2.8388 "" 0.000 0.000 27 22 22 21 00 06 35 33
[USB3]$GPGGA,185439.30,5104.7370490,N,11407.8468950,W,1,24,0.6,1122.122,M,-16.60,M,,*51
<BESTPOS USB3 0 52.0 FINESTEERING 2354 586497.300 02000000 cdba 17399
<     SOL_COMPUTED SINGLE 51.07895081633 -114.13078158321 1122.1218 -16.6000 WGS84 1.4824 1.3789 2.7370 "" 0.000 0.000 29 24 24 21 00 06 35 33
[USB3]$GPGGA,185439.40,5104.7369703,N,11407.8466206,W,1,24,0.6,1121.793,M,-16.60,M,,*5E
<BESTPOS USB3 0 52.0 FINESTEERING 2354 586497.400 02000000 cdba 17399
<     SOL_COMPUTED SINGLE 51.07894950572 -114.13077700972 1121.7926 -16.6000 WGS84 1.4898 1.3934 2.7472 "" 0.000 0.000 29 24 24 21 00 06 35 33
[USB3]$GPGGA,185439.50,5104.7369907,N,11407.8466173,W,1,23,0.7,1121.685,M,-16.60,M,,*54
<BESTPOS USB3 0 52.0 FINESTEERING 2354 586497.500 02000000 cdba 17399
<     SOL_COMPUTED SINGLE 51.07894984486 -114.13077695421 1121.6846 -16.6000 WGS84 1.4919 1.3924 2.7473 "" 0.000 0.000 28 23 23 21 00 06 35 33
[USB3]$GPGGA,185439.60,5104.7370047,N,11407.8465270,W,1,24,0.7,1121.696,M,-16.60,M,,*54
<BESTPOS USB3 0 52.0 FINESTEERING 2354 586497.600 02000000 cdba 17399
<     SOL_COMPUTED SINGLE 51.07895007896 -114.13077544986 1121.6960 -16.6000 WGS84 1.4921 1.3830 2.7397 "" 0.000 0.000 29 24 24 21 00 06 35 33
[USB3]$GPGGA,185439.70,5104.7370436,N,11407.8464929,W,1,24,0.7,1121.616,M,-16.60,M,,*59
<BESTPOS USB3 0 52.0 FINESTEERING 2354 586497.700 02000000 cdba 17399
<     SOL_COMPUTED SINGLE 51.07895072748 -114.13077488173 1121.6164 -16.6000 WGS84 1.4929 1.3767 2.7336 "" 0.000 0.000 29 24 24 22 00 06 35 33
[USB3]$GPGGA,185439.80,5104.7368959,N,11407.8461956,W,1,25,0.7,1121.614,M,-16.60,M,,*55
<BESTPOS USB3 0 52.0 FINESTEERING 2354 586497.800 02000000 cdba 17399
<     SOL_COMPUTED SINGLE 51.07894826540 -114.13076992636 1121.6144 -16.6000 WGS84 1.4597 1.3208 2.7294 "" 0.000 0.000 29 25 25 23 00 06 35 33
[USB3]$GPGGA,185439.90,5104.7371418,N,11407.8465334,W,1,25,0.7,1121.582,M,-16.60,M,,*52
<BESTPOS USB3 0 52.0 FINESTEERING 2354 586497.900 02000000 cdba 17399
<     SOL_COMPUTED SINGLE 51.07895236331 -114.13077555675 1121.5818 -16.6000 WGS84 1.4889 1.3681 2.7283 "" 0.000 0.000 29 25 25 21 00 06 35 33
[USB3]$GPGGA,185440.00,5104.7376597,N,11407.8488933,W,1,24,0.6,1122.944,M,-16.60,M,,*5F
<BESTPOS USB3 0 52.0 FINESTEERING 2354 586498.000 02000000 cdba 17399
<     SOL_COMPUTED SINGLE 51.07896099420 -114.13081488896 1122.9438 -16.6000 WGS84 1.4826 1.3149 2.7161 "" 0.000 0.000 28 24 24 20 00 06 35 33
[USB3]$GPGGA,185440.10,5104.7357146,N,11407.8436567,W,1,26,0.6,1118.573,M,-16.60,M,,*5E
<BESTPOS USB3 0 52.0 FINESTEERING 2354 586498.100 02000000 cdba 17399
<     SOL_COMPUTED SINGLE 51.07892857695 -114.13072761114 1118.5729 -16.6000 WGS84 1.5002 1.3802 2.7590 "" 0.000 0.000 30 26 26 22 00 06 35 33
[USB3]$GPGGA,185440.20,5104.7357257,N,11407.8436094,W,1,25,0.6,1118.376,M,-16.60,M,,*57
<BESTPOS USB3 0 54.5 FINESTEERING 2354 586498.200 02000000 cdba 17399
<     SOL_COMPUTED SINGLE 51.07892876161 -114.13072682373 1118.3765 -16.6000 WGS84 1.5015 1.3790 2.7576 "" 0.000 0.000 29 25 25 21 00 06 35 33
[USB3]$GPGGA,185440.30,5104.7357904,N,11407.8435785,W,1,26,0.6,1118.384,M,-16.60,M,,*51
<BESTPOS USB3 0 54.5 FINESTEERING 2354 586498.300 02000000 cdba 17399
<     SOL_COMPUTED SINGLE 51.07892983986 -114.13072630784 1118.3838 -16.6000 WGS84 1.4989 1.3768 2.7559 "" 0.000 0.000 30 26 26 22 00 06 35 33
[USB3]$GPGGA,185440.40,5104.7358065,N,11407.8435330,W,1,24,0.7,1118.182,M,-16.60,M,,*5A
<BESTPOS USB3 0 54.5 FINESTEERING 2354 586498.400 02000000 cdba 17399
<     SOL_COMPUTED SINGLE 51.07893010782 -114.13072555009 1118.1823 -16.6000 WGS84 1.5022 1.3831 2.7611 "" 0.000 0.000 28 24 24 21 00 06 35 33
[USB3]$GPGGA,185440.50,5104.7356238,N,11407.8430267,W,1,25,0.7,1118.686,M,-16.60,M,,*5B
<BESTPOS USB3 0 54.5 FINESTEERING 2354 586498.500 02000000 cdba 17399
<     SOL_COMPUTED SINGLE 51.07892706318 -114.13071711180 1118.6858 -16.6000 WGS84 1.4675 1.3200 2.7427 "" 0.000 0.000 29 25 25 22 00 06 35 33
[USB3]$GPGGA,185440.60,5104.7358108,N,11407.8436652,W,1,25,0.7,1119.157,M,-16.60,M,,*58
<BESTPOS USB3 0 54.5 FINESTEERING 2354 586498.600 02000000 cdba 17399
<     SOL_COMPUTED SINGLE 51.07893017919 -114.13072775374 1119.1571 -16.6000 WGS84 1.4654 1.3058 2.7398 "" 0.000 0.000 29 25 25 23 00 06 35 33
[USB3]$GPGGA,185440.70,5104.7362715,N,11407.8455785,W,1,25,0.7,1120.612,M,-16.60,M,,*58
<BESTPOS USB3 0 54.5 FINESTEERING 2354 586498.700 02000000 cdba 17399
<     SOL_COMPUTED SINGLE 51.07893785871 -114.13075964135 1120.6118 -16.6000 WGS84 1.4640 1.2595 2.7311 "" 0.000 0.000 29 25 25 24 00 06 35 33
[USB3]$GPGGA,185440.80,5104.7367693,N,11407.8462929,W,1,23,0.7,1120.484,M,-16.60,M,,*5A
<BESTPOS USB3 0 54.5 FINESTEERING 2354 586498.800 02000000 cdba 17399
<     SOL_COMPUTED SINGLE 51.07894615421 -114.13077154836 1120.4845 -16.6000 WGS84 1.4985 1.3065 2.7338 "" 0.000 0.000 27 23 23 22 00 06 35 33
[USB3]$GPGGA,185440.90,5104.7368035,N,11407.8464428,W,1,22,0.8,1120.014,M,-16.60,M,,*57
<BESTPOS USB3 0 54.5 FINESTEERING 2354 586498.900 02000000 cdba 17399
<     SOL_COMPUTED SINGLE 51.07894672453 -114.13077404720 1120.0144 -16.6000 WGS84 1.5004 1.4618 2.8858 "" 0.000 0.000 26 22 22 21 00 06 35 33
[USB3]$GPGGA,185441.00,5104.7368711,N,11407.8463657,W,1,23,0.7,1120.060,M,-16.60,M,,*5E
<BESTPOS USB3 0 54.5 FINESTEERING 2354 586499.000 02000000 cdba 17399
<     SOL_COMPUTED SINGLE 51.07894785191 -114.13077276090 1120.0597 -16.6000 WGS84 1.5008 1.4647 2.8829 "" 0.000 0.000 27 23 23 21 00 06 35 33
[USB3]$GPGGA,185441.10,5104.7371247,N,11407.8469833,W,1,22,0.8,1119.501,M,-16.60,M,,*51
<BESTPOS USB3 0 54.5 FINESTEERING 2354 586499.100 02000000 cdba 17399
<     SOL_COMPUTED SINGLE 51.07895207890 -114.13078305511 1119.5010 -16.6000 WGS84 1.5300 1.5476 2.9038 "" 0.000 0.000 26 22 22 22 00 06 35 33
[USB3]$GPGGA,185441.20,5104.7372126,N,11407.8469419,W,1,22,0.8,1119.533,M,-16.60,M,,*50
<BESTPOS USB3 0 59.0 FINESTEERING 2354 586499.200 02000000 cdba 17399
<     SOL_COMPUTED SINGLE 51.07895354346 -114.13078236454 1119.5333 -16.6000 WGS84 1.5266 1.5357 2.9001 "" 0.000 0.000 26 22 22 22 00 06 35 33
[USB3]$GPGGA,185441.30,5104.7371245,N,11407.8464445,W,1,23,0.7,1119.982,M,-16.60,M,,*58
<BESTPOS USB3 0 59.0 FINESTEERING 2354 586499.300 02000000 cdba 17399
<     SOL_COMPUTED SINGLE 51.07895207442 -114.13077407513 1119.9825 -16.6000 WGS84 1.4966 1.4601 2.8714 "" 0.000 0.000 26 23 23 22 00 06 35 33
[USB3]$GPGGA,185441.40,5104.7373470,N,11407.8468712,W,1,23,0.7,1119.413,M,-16.60,M,,*55
<BESTPOS USB3 0 59.0 FINESTEERING 2354 586499.400 02000000 cdba 17399
<     SOL_COMPUTED SINGLE 51.07895578266 -114.13078118692 1119.4128 -16.6000 WGS84 1.4963 1.4624 2.8712 "" 0.000 0.000 27 23 23 22 00 06 35 33
[USB3]$GPGGA,185441.50,5104.7374116,N,11407.8468239,W,1,23,0.7,1119.372,M,-16.60,M,,*5A
<BESTPOS USB3 0 59.0 FINESTEERING 2354 586499.500 02000000 cdba 17399
<     SOL_COMPUTED SINGLE 51.07895686072 -114.13078039827 1119.3725 -16.6000 WGS84 1.5418 1.4602 2.8893 "" 0.000 0.000 27 23 23 22 00 06 35 37
[USB3]$GPGGA,185441.60,5104.7369414,N,11407.8464601,W,1,23,0.7,1118.475,M,-16.60,M,,*50
<BESTPOS USB3 0 59.0 FINESTEERING 2354 586499.600 02000000 cdba 17399
<     SOL_COMPUTED SINGLE 51.07894902341 -114.13077433540 1118.4753 -16.6000 WGS84 1.4904 1.4424 2.8677 "" 0.000 0.000 27 23 23 22 00 06 35 33
[USB3]$GPGGA,185441.70,5104.7369790,N,11407.8464069,W,1,23,0.7,1118.448,M,-16.60,M,,*58
<BESTPOS USB3 0 59.0 FINESTEERING 2354 586499.700 02000000 cdba 17399
<     SOL_COMPUTED SINGLE 51.07894965029 -114.13077344856 1118.4477 -16.6000 WGS84 1.4884 1.4398 2.8670 "" 0.000 0.000 27 23 23 22 00 06 35 33
[USB3]$GPGGA,185441.80,5104.7369498,N,11407.8462437,W,1,23,0.7,1118.475,M,-16.60,M,,*5B
<BESTPOS USB3 0 59.0 FINESTEERING 2354 586499.800 02000000 cdba 17399
<     SOL_COMPUTED SINGLE 51.07894916364 -114.13077072844 1118.4749 -16.6000 WGS84 1.4897 1.4454 2.8691 "" 0.000 0.000 27 23 23 22 00 06 35 33
[USB3]$GPGGA,185441.90,5104.7370409,N,11407.8462724,W,1,24,0.6,1118.369,M,-16.60,M,,*57
<BESTPOS USB3 0 59.0 FINESTEERING 2354 586499.900 02000000 cdba 17399
<     SOL_COMPUTED SINGLE 51.07895068107 -114.13077120678 1118.3687 -16.6000 WGS84 1.4875 1.4418 2.8682 "" 0.000 0.000 28 24 24 22 00 06 35 33
[USB3]$GPGGA,185442.00,5104.7370730,N,11407.8461750,W,1,24,0.6,1118.366,M,-16.60,M,,*5B
<BESTPOS USB3 0 59.0 FINESTEERING 2354 586500.000 02000000 cdba 17399
<     SOL_COMPUTED SINGLE 51.07895121716 -114.13076958320 1118.3658 -16.6000 WGS84 1.4876 1.4443 2.8686 "" 0.000 0.000 28 24 24 23 00 06 35 33
[USB3]$GPGGA,185442.10,5104.7367470,N,11407.8453684,W,1,24,0.6,1119.310,M,-16.60,M,,*52
<BESTPOS USB3 0 52.0 FINESTEERING 2354 586500.100 02000000 cdba 17399
<     SOL_COMPUTED SINGLE 51.07894578406 -114.13075613986 1119.3100 -16.6000 WGS84 1.4680 1.4122 2.8291 "" 0.000 0.000 27 24 24 23 00 06 35 33
[USB3]$GPGGA,185442.20,5104.7367577,N,11407.8452113,W,1,26,0.6,1119.511,M,-16.60,M,,*5A
<BESTPOS USB3 0 52.0 FINESTEERING 2354 586500.200 02000000 cdba 17399
<     SOL_COMPUTED SINGLE 51.07894596094 -114.13075352101 1119.5107 -16.6000 WGS84 1.4610 1.3987 2.8175 "" 0.000 0.000 29 26 26 23 00 06 35 33
[USB3]$GPGGA,185442.30,5104.7367927,N,11407.8452072,W,1,26,0.6,1119.339,M,-16.60,M,,*58
<BESTPOS USB3 0 52.0 FINESTEERING 2354 586500.300 02000000 cdba 17399
<     SOL_COMPUTED SINGLE 51.07894654464 -114.13075345320 1119.3389 -16.6000 WGS84 1.4648 1.4073 2.8245 "" 0.000 0.000 29 26 26 23 00 06 35 33
[USB3]$GPGGA,185442.40,5104.7368656,N,11407.8452568,W,1,26,0.6,1119.045,M,-16.60,M,,*5F
<BESTPOS USB3 0 52.0 FINESTEERING 2354 586500.400 02000000 cdba 17399
<     SOL_COMPUTED SINGLE 51.07894775934 -114.13075428059 1119.0449 -16.6000 WGS84 1.4714 1.4193 2.8353 "" 0.000 0.000 29 26 26 24 00 06 35 33
[USB3]$GPGGA,185442.50,5104.7371785,N,11407.8457507,W,1,25,0.6,1118.135,M,-16.60,M,,*51
<BESTPOS USB3 0 52.0 FINESTEERING 2354 586500.500 02000000 cdba 17399
<     SOL_COMPUTED SINGLE 51.07895297474 -114.13076251095 1118.1349 -16.6000 WGS84 1.4910 1.4555 2.8710 "" 0.000 0.000 28 25 25 24 00 06 35 33
[USB3]$GPGGA,185442.60,5104.7372362,N,11407.8457474,W,1,25,0.6,1117.938,M,-16.60,M,,*53
<BESTPOS USB3 0 52.0 FINESTEERING 2354 586500.600 02000000 cdba 17399
<     SOL_COMPUTED SINGLE 51.07895393597 -114.13076245651 1117.9383 -16.6000 WGS84 1.4913 1.4521 2.8715 "" 0.000 0.000 28 25 25 24 00 06 35 33
[USB3]$GPGGA,185442.70,5104.7373823,N,11407.8457336,W,1,26,0.6,1118.106,M,-16.60,M,,*55
<BESTPOS USB3 0 52.0 FINESTEERING 2354 586500.700 02000000 cdba 17399
<     SOL_COMPUTED SINGLE 51.07895637235 -114.13076222640 1118.1056 -16.6000 WGS84 1.4992 1.4513 2.8729 "" 0.000 0.000 29 26 26 24 00 06 35 33
[USB3]$GPGGA,185442.80,5104.7376837,N,11407.8461484,W,1,26,0.6,1117.954,M,-16.60,M,,*51
<BESTPOS USB3 0 52.0 FINESTEERING 2354 586500.800 02000000 cdba 17399
<     SOL_COMPUTED SINGLE 51.07896139430 -114.13076913920 1117.9542 -16.6000 WGS84 1.4688 1.4053 2.8725 "" 0.000 0.000 29 26 26 24 00 06 35 33
[USB3]$GPGGA,185442.90,5104.7378872,N,11407.8463524,W,1,26,0.7,1117.867,M,-16.60,M,,*56
<BESTPOS USB3 0 52.0 FINESTEERING 2354 586500.900 02000000 cdba 17399
<     SOL_COMPUTED SINGLE 51.07896478693 -114.13077254051 1117.8666 -16.6000 WGS84 1.4635 1.4002 2.8730 "" 0.000 0.000 29 26 26 24 00 06 35 33
[USB3]$GPGGA,185443.00,5104.7383503,N,11407.8469665,W,1,26,0.7,1119.022,M,-16.60,M,,*5A
<BESTPOS USB3 0 52.0 FINESTEERING 2354 586501.000 02000000 cdba 17399
<     SOL_COMPUTED SINGLE 51.07897250423 -114.13078277561 1119.0221 -16.6000 WGS84 1.4416 1.3691 2.8453 "" 0.000 0.000 29 26 26 24 00 06 35 33
[USB3]$GPGGA,185443.10,5104.7386609,N,11407.8474004,W,1,26,0.7,1119.585,M,-16.60,M,,*52
<BESTPOS USB3 0 52.0 FINESTEERING 2354 586501.100 02000000 cdba 17399
<     SOL_COMPUTED SINGLE 51.07897768096 -114.13079000679 1119.5849 -16.6000 WGS84 1.4272 1.3492 2.8300 "" 0.000 0.000 29 26 26 24 00 06 35 33
[USB3]$GPGGA,185443.20,5104.7382014,N,11407.8453941,W,1,26,0.7,1118.095,M,-16.60,M,,*57
<BESTPOS USB3 0 55.0 FINESTEERING 2354 586501.200 02000000 cdba 17399
<     SOL_COMPUTED SINGLE 51.07897002253 -114.13075656765 1118.0950 -16.6000 WGS84 1.4582 1.4054 2.8899 "" 0.000 0.000 29 26 26 24 00 06 35 33
[USB3]$GPGGA,185443.30,5104.7384628,N,11407.8450409,W,1,26,0.7,1118.832,M,-16.60,M,,*5E
<BESTPOS USB3 0 55.0 FINESTEERING 2354 586501.300 02000000 cdba 17399
<     SOL_COMPUTED SINGLE 51.07897438081 -114.13075068130 1118.8318 -16.6000 WGS84 1.4286 1.4013 2.8348 "" 0.000 0.000 29 26 26 24 00 06 35 33
[USB3]$GPGGA,185443.40,5104.7385473,N,11407.8449773,W,1,26,0.6,1119.076,M,-16.60,M,,*5A
<BESTPOS USB3 0 55.0 FINESTEERING 2354 586501.400 02000000 cdba 17399
<     SOL_COMPUTED SINGLE 51.07897578875 -114.13074962229 1119.0759 -16.6000 WGS84 1.4268 1.3934 2.8313 "" 0.000 0.000 29 26 26 24 00 06 35 33
[USB3]$GPGGA,185443.50,5104.7387960,N,11407.8447104,W,1,27,0.6,1119.818,M,-16.60,M,,*5F
<BESTPOS USB3 0 55.0 FINESTEERING 2354 586501.500 02000000 cdba 17399
<     SOL_COMPUTED SINGLE 51.07897993342 -114.13074517338 1119.8179 -16.6000 WGS84 1.4548 1.4185 2.8776 "" 0.000 0.000 30 27 27 25 00 06 35 33
[USB3]$GPGGA,185443.60,5104.7390037,N,11407.8441719,W,1,26,0.6,1120.767,M,-16.60,M,,*51
<BESTPOS USB3 0 55.0 FINESTEERING 2354 586501.600 02000000 cdba 17399
<     SOL_COMPUTED SINGLE 51.07898339533 -114.13073619854 1120.7675 -16.6000 WGS84 1.4902 1.3272 2.7860 "" 0.000 0.000 29 26 26 25 00 06 35 37
[USB3]$GPGGA,185443.70,5104.7391329,N,11407.8442250,W,1,26,0.6,1120.897,M,-16.60,M,,*56
<BESTPOS USB3 0 55.0 FINESTEERING 2354 586501.700 02000000 cdba 17399
<     SOL_COMPUTED SINGLE 51.07898554843 -114.13073708318 1120.8969 -16.6000 WGS84 1.4552 1.3259 2.7808 "" 0.000 0.000 29 26 26 25 00 06 35 33
[USB3]$GPGGA,185443.80,5104.7393189,N,11407.8444076,W,1,26,0.6,1121.191,M,-16.60,M,,*5D
<BESTPOS USB3 0 55.0 FINESTEERING 2354 586501.800 02000000 cdba 17399
<     SOL_COMPUTED SINGLE 51.07898864829 -114.13074012605 1121.1914 -16.6000 WGS84 1.4618 1.3373 2.7931 "" 0.000 0.000 29 26 26 24 00 06 35 33
[USB3]$GPGGA,185443.90,5104.7393430,N,11407.8441411,W,1,26,0.6,1121.470,M,-16.60,M,,*51
<BESTPOS USB3 0 55.0 FINESTEERING 2354 586501.900 02000000 cdba 17399
<     SOL_COMPUTED SINGLE 51.07898904961 -114.13073568479 1121.4704 -16.6000 WGS84 1.4598 1.2912 2.7488 "" 0.000 0.000 29 26 26 25 00 06 35 33
[USB3]$GPGGA,185444.00,5104.7393082,N,11407.8439752,W,1,26,0.6,1121.247,M,-16.60,M,,*5B
<BESTPOS USB3 0 55.0 FINESTEERING 2354 586502.000 02000000 cdba 17399
<     SOL_COMPUTED SINGLE 51.07898847062 -114.13073292021 1121.2466 -16.6000 WGS84 1.4602 1.2918 2.7517 "" 0.000 0.000 29 26 26 24 00 06 35 33
[USB3]$GPGGA,185444.10,5104.7391503,N,11407.8433708,W,1,27,0.6,1120.770,M,-16.60,M,,*50
<BESTPOS USB3 0 55.0 FINESTEERING 2354 586502.100 02000000 cdba 17399
<     SOL_COMPUTED SINGLE 51.07898583895 -114.13072284659 1120.7698 -16.6000 WGS84 1.4548 1.2578 2.7501 "" 0.000 0.000 30 27 27 25 00 06 35 33
[USB3]$GPGGA,185444.20,5104.7390151,N,11407.8429788,W,1,26,0.6,1120.244,M,-16.60,M,,*51
<BESTPOS USB3 0 56.5 FINESTEERING 2354 586502.200 02000000 cdba 17399
<     SOL_COMPUTED SINGLE 51.07898358521 -114.13071631285 1120.2443 -16.6000 WGS84 1.4835 1.2488 2.7391 "" 0.000 0.000 29 26 26 25 00 06 35 37
[USB3]$GPGGA,185444.30,5104.7388315,N,11407.8424656,W,1,27,0.6,1121.367,M,-16.60,M,,*54
<BESTPOS USB3 0 56.5 FINESTEERING 2354 586502.300 02000000 cdba 17399
<     SOL_COMPUTED SINGLE 51.07898052484 -114.13070775998 1121.3671 -16.6000 WGS84 1.4597 1.2065 2.6944 "" 0.000 0.000 30 27 27 25 00 06 35 33
[USB3]$GPGGA,185444.40,5104.7389787,N,11407.8430089,W,1,27,0.6,1121.554,M,-16.60,M,,*5A
<BESTPOS USB3 0 56.5 FINESTEERING 2354 586502.400 02000000 cdba 17399
<     SOL_COMPUTED SINGLE 51.07898297885 -114.13071681512 1121.5538 -16.6000 WGS84 1.4214 1.1820 2.6559 "" 0.000 0.000 30 27 27 25 00 06 35 33
[USB3]$GPGGA,185444.50,5104.7390114,N,11407.8430236,W,1,27,0.6,1121.468,M,-16.60,M,,*57
<BESTPOS USB3 0 56.5 FINESTEERING 2354 586502.500 02000000 cdba 17399
<     SOL_COMPUTED SINGLE 51.07898352321 -114.13071705958 1121.4677 -16.6000 WGS84 1.4088 1.1769 2.6585 "" 0.000 0.000 30 27 27 25 00 06 35 33
[USB3]$GPGGA,185444.60,5104.7388426,N,11407.8426874,W,1,27,0.6,1120.630,M,-16.60,M,,*5C
<BESTPOS USB3 0 56.5 FINESTEERING 2354 586502.600 02000000 cdba 17399
<     SOL_COMPUTED SINGLE 51.07898071074 -114.13071145668 1120.6298 -16.6000 WGS84 1.4206 1.1884 2.6724 "" 0.000 0.000 30 27 27 25 00 06 35 33
[USB3]$GPGGA,185444.70,5104.7389543,N,11407.8427279,W,1,27,0.6,1120.518,M,-16.60,M,,*51
<BESTPOS USB3 0 56.5 FINESTEERING 2354 586502.700 02000000 cdba 17399
<     SOL_COMPUTED SINGLE 51.07898257105 -114.13071213157 1120.5185 -16.6000 WGS84 1.4314 1.1969 2.6767 "" 0.000 0.000 30 27 27 26 00 06 35 33
[USB3]$GPGGA,185444.80,5104.7390363,N,11407.8428023,W,1,26,0.6,1120.118,M,-16.60,M,,*55
<BESTPOS USB3 0 56.5 FINESTEERING 2354 586502.800 02000000 cdba 17399
<     SOL_COMPUTED SINGLE 51.07898393824 -114.13071337090 1120.1181 -16.6000 WGS84 1.4365 1.2034 2.6810 "" 0.000 0.000 29 26 26 25 00 06 35 33
[USB3]$GPGGA,185444.90,5104.7392881,N,11407.8430622,W,1,26,0.6,1119.606,M,-16.60,M,,*5D
<BESTPOS USB3 0 56.5 FINESTEERING 2354 586502.900 02000000 cdba 17399
<     SOL_COMPUTED SINGLE 51.07898813528 -114.13071770350 1119.6062 -16.6000 WGS84 1.4534 1.2132 2.6961 "" 0.000 0.000 29 26 26 25 00 06 35 33
[USB3]$GPGGA,185445.00,5104.7389921,N,11407.8424433,W,1,26,0.6,1120.745,M,-16.60,M,,*5F
<BESTPOS USB3 0 56.5 FINESTEERING 2354 586503.000 02000000 cdba 17399
<     SOL_COMPUTED SINGLE 51.07898320246 -114.13070738835 1120.7453 -16.6000 WGS84 1.4483 1.1873 2.6653 "" 0.000 0.000 29 26 26 25 00 06 35 33
[USB3]$GPGGA,185445.10,5104.7390702,N,11407.8439878,W,1,26,0.6,1121.950,M,-16.60,M,,*5D
<BESTPOS USB3 0 56.0 FINESTEERING 2354 586503.100 02000000 cdba 17399
<     SOL_COMPUTED SINGLE 51.07898450363 -114.13073313020 1121.9500 -16.6000 WGS84 1.4037 1.1759 2.6519 "" 0.000 0.000 29 26 26 25 00 06 35 33
[USB3]$GPGGA,185445.20,5104.7390804,N,11407.8422437,W,1,25,0.6,1120.648,M,-16.60,M,,*5E
<BESTPOS USB3 0 56.0 FINESTEERING 2354 586503.200 02000000 cdba 17399
<     SOL_COMPUTED SINGLE 51.07898467365 -114.13070406178 1120.6479 -16.6000 WGS84 1.4861 1.1932 2.6722 "" 0.000 0.000 28 25 25 25 00 06 35 33
[USB3]$GPGGA,185445.30,5104.7383998,N,11407.8418185,W,1,26,0.6,1119.621,M,-16.60,M,,*5A
<BESTPOS USB3 0 56.0 FINESTEERING 2354 586503.300 02000000 cdba 17399
<     SOL_COMPUTED SINGLE 51.07897332959 -114.13069697431 1119.6213 -16.6000 WGS84 1.4151 1.1714 2.6529 "" 0.000 0.000 29 26 26 26 00 06 35 33
[USB3]$GPGGA,185445.40,5104.7383997,N,11407.8417546,W,1,26,0.6,1119.541,M,-16.60,M,,*53
<BESTPOS USB3 0 56.0 FINESTEERING 2354 586503.400 02000000 cdba 17399
