$GPGGA,221210.90,5104.7678673,N,11407.8876788,W,1,22,0.6,1114.224,M,-16.60,M,,*57
<BESTPOS USB3 0 43.0 FINESTEERING 2354 598348.900 02000000 cdba 17399
<SOL_COMPUTED SINGLE 51.07946445418 -114.13146131349 1114.2236 -16.6000 WGS84 1.4425 1.2716 2.4573 "" 0.000 0.000 27 22 22 22 00 06 35 33
[USB3]$GPGGA,221211.00,5104.7678650,N,11407.8876789,W,1,22,0.6,1114.225,M,-16.60,M,,*5E
<BESTPOS USB3 0 43.0 FINESTEERING 2354 598349.000 02000000 cdba 17399
<SOL_COMPUTED SINGLE 51.07946441674 -114.13146131580 1114.2246 -16.6000 WGS84 1.4426 1.2718 2.4577 "" 0.000 0.000 27 22 22 22 00 06 35 33
[USB3]$GPGGA,221211.10,5104.7678644,N,11407.8876806,W,1,22,0.6,1114.235,M,-16.60,M,,*53
<BESTPOS USB3 0 43.0 FINESTEERING 2354 598349.100 02000000 cdba 17399
<SOL_COMPUTED SINGLE 51.07946440689 -114.13146134328 1114.2346 -16.6000 WGS84 1.4427 1.2717 2.4578 "" 0.000 0.000 27 22 22 22 00 06 35 33
[USB3]$GPGGA,221211.20,5104.7678639,N,11407.8876823,W,1,22,0.6,1114.241,M,-16.60,M,,*5E
<BESTPOS USB3 0 47.0 FINESTEERING 2354 598349.200 02000000 cdba 17399
<SOL_COMPUTED SINGLE 51.07946439763 -114.13146137137 1114.2406 -16.6000 WGS84 1.4426 1.2718 2.4581 "" 0.000 0.000 27 22 22 22 00 06 35 33
[USB3]$GPGGA,221211.30,5104.7678654,N,11407.8876835,W,1,22,0.6,1114.244,M,-16.60,M,,*56
<BESTPOS USB3 0 47.0 FINESTEERING 2354 598349.300 02000000 cdba 17399
<SOL_COMPUTED SINGLE 51.07946442266 -114.13146139229 1114.2445 -16.6000 WGS84 1.4426 1.2717 2.4581 "" 0.000 0.000 27 22 22 22 00 06 35 33
[USB3]$GPGGA,221211.40,5104.7678669,N,11407.8876862,W,1,22,0.6,1114.246,M,-16.60,M,,*5F
<BESTPOS USB3 0 47.0 FINESTEERING 2354 598349.400 02000000 cdba 17399
<SOL_COMPUTED SINGLE 51.07946444883 -114.13146143612 1114.2459 -16.6000 WGS84 1.4425 1.2715 2.4579 "" 0.000 0.000 27 22 22 22 00 06 35 33
[USB3]$GPGGA,221211.50,5104.7678679,N,11407.8876881,W,1,22,0.6,1114.246,M,-16.60,M,,*52
<BESTPOS USB3 0 47.0 FINESTEERING 2354 598349.500 02000000 cdba 17399
<SOL_COMPUTED SINGLE 51.07946446539 -114.13146146791 1114.2456 -16.6000 WGS84 1.4424 1.2713 2.4577 "" 0.000 0.000 27 22 22 22 00 06 35 33
[USB3]$GPGGA,221211.60,5104.7678689,N,11407.8876886,W,1,22,0.6,1114.247,M,-16.60,M,,*58
<BESTPOS USB3 0 47.0 FINESTEERING 2354 598349.600 02000000 cdba 17399
<SOL_COMPUTED SINGLE 51.07946448128 -114.13146147661 1114.2471 -16.6000 WGS84 1.4425 1.2713 2.4577 "" 0.000 0.000 27 22 22 22 00 06 35 33
[USB3]$GPGGA,221211.70,5104.7678683,N,11407.8876906,W,1,22,0.6,1114.251,M,-16.60,M,,*5D
<BESTPOS USB3 0 47.0 FINESTEERING 2354 598349.700 02000000 cdba 17399
<SOL_COMPUTED SINGLE 51.07946447169 -114.13146150994 1114.2508 -16.6000 WGS84 1.4424 1.2712 2.4575 "" 0.000 0.000 27 22 22 22 00 06 35 33
[USB3]$GPGGA,221211.80,5104.7678629,N,11407.8876887,W,1,22,0.6,1114.257,M,-16.60,M,,*5C
<BESTPOS USB3 0 47.0 FINESTEERING 2354 598349.800 02000000 cdba 17399
<SOL_COMPUTED SINGLE 51.07946438226 -114.13146147833 1114.2569 -16.6000 WGS84 1.4445 1.2719 2.4578 "" 0.000 0.000 27 22 22 22 00 06 35 33
[USB3]$GPGGA,221211.90,5104.7678384,N,11407.8876696,W,1,22,0.6,1114.283,M,-16.60,M,,*58
<BESTPOS USB3 0 47.0 FINESTEERING 2354 598349.900 02000000 cdba 17399
<SOL_COMPUTED SINGLE 51.07946397313 -114.13146115996 1114.2834 -16.6000 WGS84 1.4524 1.2748 2.4594 "" 0.000 0.000 27 22 22 22 00 06 35 33
[USB3]$GPGGA,221212.00,5104.7678115,N,11407.8876482,W,1,21,0.7,1114.311,M,-16.60,M,,*57
<BESTPOS USB3 0 47.0 FINESTEERING 2354 598350.000 02000000 cdba 17399
<SOL_COMPUTED SINGLE 51.07946352448 -114.13146080286 1114.3113 -16.6000 WGS84 1.4609 1.2780 2.4612 "" 0.000 0.000 26 21 21 21 00 06 35 33
[USB3]$GPGGA,221212.10,5104.7678186,N,11407.8876485,W,1,21,0.7,1114.300,M,-16.60,M,,*5B
<BESTPOS USB3 0 47.0 FINESTEERING 2354 598350.100 02000000 cdba 17399
<SOL_COMPUTED SINGLE 51.07946364329 -114.13146080767 1114.3000 -16.6000 WGS84 1.4611 1.2778 2.4612 "" 0.000 0.000 26 21 21 21 00 06 35 33
[USB3]$GPGGA,221212.20,5104.7678181,N,11407.8876579,W,1,21,0.7,1114.305,M,-16.60,M,,*58
<BESTPOS USB3 0 49.5 FINESTEERING 2354 598350.200 02000000 cdba 17399
<SOL_COMPUTED SINGLE 51.07946363497 -114.13146096482 1114.3047 -16.6000 WGS84 1.4614 1.2776 2.4611 "" 0.000 0.000 26 21 21 21 00 06 35 33
[USB3]$GPGGA,221212.30,5104.7678169,N,11407.8876665,W,1,21,0.7,1114.303,M,-16.60,M,,*57
<BESTPOS USB3 0 49.5 FINESTEERING 2354 598350.300 02000000 cdba 17399
<SOL_COMPUTED SINGLE 51.07946361524 -114.13146110899 1114.3031 -16.6000 WGS84 1.4617 1.2775 2.4612 "" 0.000 0.000 26 21 21 21 00 06 35 33
[USB3]$GPGGA,221212.40,5104.7678138,N,11407.8876774,W,1,21,0.7,1114.311,M,-16.60,M,,*56
<BESTPOS USB3 0 49.5 FINESTEERING 2354 598350.400 02000000 cdba 17399
<SOL_COMPUTED SINGLE 51.07946356252 -114.13146128991 1114.3114 -16.6000 WGS84 1.4622 1.2776 2.4619 "" 0.000 0.000 26 21 21 21 00 06 35 33
[USB3]$GPGGA,221212.50,5104.7678066,N,11407.8876975,W,1,21,0.7,1114.334,M,-16.60,M,,*55
<BESTPOS USB3 0 49.5 FINESTEERING 2354 598350.500 02000000 cdba 17399
<SOL_COMPUTED SINGLE 51.07946344271 -114.13146162575 1114.3335 -16.6000 WGS84 1.4630 1.2777 2.4632 "" 0.000 0.000 26 21 21 21 00 06 35 33
[USB3]$GPGGA,221212.60,5104.7678008,N,11407.8877288,W,1,21,0.7,1114.352,M,-16.60,M,,*56
<BESTPOS USB3 0 49.5 FINESTEERING 2354 598350.600 02000000 cdba 17399
<SOL_COMPUTED SINGLE 51.07946334744 -114.13146214658 1114.3517 -16.6000 WGS84 1.4634 1.2782 2.4634 "" 0.000 0.000 26 21 21 21 00 06 35 33
[USB3]$GPGGA,221212.70,5104.7678017,N,11407.8877583,W,1,21,0.7,1114.332,M,-16.60,M,,*53
<BESTPOS USB3 0 49.5 FINESTEERING 2354 598350.700 02000000 cdba 17399
<SOL_COMPUTED SINGLE 51.07946336135 -114.13146263886 1114.3322 -16.6000 WGS84 1.4624 1.2784 2.4600 "" 0.000 0.000 26 21 21 21 00 06 35 33
[USB3]$GPGGA,221212.80,5104.7677972,N,11407.8877900,W,1,21,0.7,1114.319,M,-16.60,M,,*57
<BESTPOS USB3 0 49.5 FINESTEERING 2354 598350.800 02000000 cdba 17399
<SOL_COMPUTED SINGLE 51.07946328682 -114.13146316711 1114.3192 -16.6000 WGS84 1.4618 1.2780 2.4585 "" 0.000 0.000 26 21 21 21 00 06 35 33
[USB3]$GPGGA,221212.90,5104.7677890,N,11407.8878277,W,1,22,0.6,1114.324,M,-16.60,M,,*53
<BESTPOS USB3 0 49.5 FINESTEERING 2354 598350.900 02000000 cdba 17399
<SOL_COMPUTED SINGLE 51.07946314946 -114.13146379448 1114.3236 -16.6000 WGS84 1.4597 1.2768 2.4588 "" 0.000 0.000 27 22 22 22 00 06 35 33
[USB3]$GPGGA,221213.00,5104.7677789,N,11407.8878778,W,1,22,0.6,1114.324,M,-16.60,M,,*56
<BESTPOS USB3 0 49.5 FINESTEERING 2354 598351.000 02000000 cdba 17399
<SOL_COMPUTED SINGLE 51.07946298228 -114.13146462932 1114.3243 -16.6000 WGS84 1.4602 1.2771 2.4594 "" 0.000 0.000 27 22 22 22 00 06 35 33
[USB3]$GPGGA,221213.10,5104.7677717,N,11407.8879291,W,1,22,0.6,1114.311,M,-16.60,M,,*55
<BESTPOS USB3 0 48.5 FINESTEERING 2354 598351.100 02000000 cdba 17399
<SOL_COMPUTED SINGLE 51.07946286146 -114.13146548453 1114.3112 -16.6000 WGS84 1.4594 1.2763 2.4552 "" 0.000 0.000 27 22 22 22 00 06 35 33
[USB3]$GPGGA,221213.20,5104.7677569,N,11407.8879955,W,1,22,0.6,1114.331,M,-16.60,M,,*5C
<BESTPOS USB3 0 48.5 FINESTEERING 2354 598351.200 02000000 cdba 17399
<SOL_COMPUTED SINGLE 51.07946261438 -114.13146659212 1114.3313 -16.6000 WGS84 1.4598 1.2765 2.4568 "" 0.000 0.000 27 22 22 22 00 06 35 33
[USB3]$GPGGA,221213.30,5104.7677398,N,11407.8880479,W,1,22,0.6,1114.295,M,-16.60,M,,*5F
<BESTPOS USB3 0 48.5 FINESTEERING 2354 598351.300 02000000 cdba 17399
<SOL_COMPUTED SINGLE 51.07946232980 -114.13146746498 1114.2946 -16.6000 WGS84 1.4595 1.2763 2.4561 "" 0.000 0.000 27 22 22 22 00 06 35 33
[USB3]$GPGGA,221213.40,5104.7677343,N,11407.8881289,W,1,22,0.6,1114.304,M,-16.60,M,,*5F
<BESTPOS USB3 0 48.5 FINESTEERING 2354 598351.400 02000000 cdba 17399
<SOL_COMPUTED SINGLE 51.07946223780 -114.13146881529 1114.3039 -16.6000 WGS84 1.4597 1.2761 2.4558 "" 0.000 0.000 27 22 22 22 00 06 35 33
[USB3]$GPGGA,221213.50,5104.7677152,N,11407.8881980,W,1,22,0.6,1114.310,M,-16.60,M,,*5B
<BESTPOS USB3 0 48.5 FINESTEERING 2354 598351.500 02000000 cdba 17399
<SOL_COMPUTED SINGLE 51.07946192035 -114.13146996610 1114.3099 -16.6000 WGS84 1.4596 1.2757 2.4565 "" 0.000 0.000 27 22 22 22 00 06 35 33
[USB3]$GPGGA,221213.60,5104.7676956,N,11407.8882475,W,1,22,0.6,1114.295,M,-16.60,M,,*5D
<BESTPOS USB3 0 48.5 FINESTEERING 2354 598351.600 02000000 cdba 17399
<SOL_COMPUTED SINGLE 51.07946159409 -114.13147079193 1114.2954 -16.6000 WGS84 1.4590 1.2751 2.4552 "" 0.000 0.000 27 22 22 22 00 06 35 33
[USB3]$GPGGA,221213.70,5104.7676747,N,11407.8883074,W,1,22,0.6,1114.336,M,-16.60,M,,*5E
<BESTPOS USB3 0 48.5 FINESTEERING 2354 598351.700 02000000 cdba 17399
<SOL_COMPUTED SINGLE 51.07946124513 -114.13147179050 1114.3358 -16.6000 WGS84 1.4593 1.2751 2.4560 "" 0.000 0.000 27 22 22 22 00 06 35 33
[USB3]$GPGGA,221213.80,5104.7677153,N,11407.8884114,W,1,22,0.6,1114.273,M,-16.60,M,,*53
<BESTPOS USB3 0 48.5 FINESTEERING 2354 598351.800 02000000 cdba 17399
<SOL_COMPUTED SINGLE 51.07946192149 -114.13147352386 1114.2733 -16.6000 WGS84 1.4451 1.2706 2.4529 "" 0.000 0.000 27 22 22 22 00 06 35 33
[USB3]$GPGGA,221213.90,5104.7674948,N,11407.8885579,W,1,22,0.6,1114.979,M,-16.60,M,,*5C
<BESTPOS USB3 0 48.5 FINESTEERING 2354 598351.900 02000000 cdba 17399
<SOL_COMPUTED SINGLE 51.07945824591 -114.13147596429 1114.9792 -16.6000 WGS84 1.4769 1.2743 2.5241 "" 0.000 0.000 27 22 22 22 00 06 35 37
[USB3]$GPGGA,221214.00,5104.7675854,N,11407.8885375,W,1,22,0.6,1114.531,M,-16.60,M,,*55
<BESTPOS USB3 0 48.5 FINESTEERING 2354 598352.000 02000000 cdba 17399
<SOL_COMPUTED SINGLE 51.07945975749 -114.13147562565 1114.5306 -16.6000 WGS84 1.4457 1.2709 2.4541 "" 0.000 0.000 27 22 22 22 00 06 35 33
[USB3]$GPGGA,221214.10,5104.7675660,N,11407.8886025,W,1,22,0.6,1114.545,M,-16.60,M,,*5B
<BESTPOS USB3 0 48.5 FINESTEERING 2354 598352.100 02000000 cdba 17399
<SOL_COMPUTED SINGLE 51.07945943400 -114.13147670899 1114.5451 -16.6000 WGS84 1.4460 1.2712 2.4552 "" 0.000 0.000 27 22 22 22 00 06 35 33
[USB3]$GPGGA,221214.20,5104.7675439,N,11407.8886701,W,1,22,0.6,1114.529,M,-16.60,M,,*5D
<BESTPOS USB3 0 50.0 FINESTEERING 2354 598352.200 02000000 cdba 17399
<SOL_COMPUTED SINGLE 51.07945906453 -114.13147783575 1114.5287 -16.6000 WGS84 1.4452 1.2702 2.4543 "" 0.000 0.000 27 22 22 22 00 06 35 33
[USB3]$GPGGA,221214.30,5104.7675121,N,11407.8887504,W,1,22,0.6,1114.561,M,-16.60,M,,*5A
<BESTPOS USB3 0 50.0 FINESTEERING 2354 598352.300 02000000 cdba 17399
<SOL_COMPUTED SINGLE 51.07945853555 -114.13147917301 1114.5611 -16.6000 WGS84 1.4470 1.2703 2.4581 "" 0.000 0.000 27 22 22 22 00 06 35 33
[USB3]$GPGGA,221214.40,5104.7674868,N,11407.8888266,W,1,22,0.6,1114.587,M,-16.60,M,,*5C
<BESTPOS USB3 0 50.0 FINESTEERING 2354 598352.400 02000000 cdba 17399
<SOL_COMPUTED SINGLE 51.07945811386 -114.13148044404 1114.5871 -16.6000 WGS84 1.4473 1.2704 2.4590 "" 0.000 0.000 27 22 22 22 00 06 35 33
[USB3]$GPGGA,221214.50,5104.7674630,N,11407.8889013,W,1,22,0.6,1114.600,M,-16.60,M,,*53
<BESTPOS USB3 0 50.0 FINESTEERING 2354 598352.500 02000000 cdba 17399
<SOL_COMPUTED SINGLE 51.07945771733 -114.13148168798 1114.5996 -16.6000 WGS84 1.4465 1.2702 2.4575 "" 0.000 0.000 27 22 22 22 00 06 35 33
[USB3]$GPGGA,221214.60,5104.7674346,N,11407.8889732,W,1,22,0.6,1114.614,M,-16.60,M,,*55
<BESTPOS USB3 0 50.0 FINESTEERING 2354 598352.600 02000000 cdba 17399
<SOL_COMPUTED SINGLE 51.07945724271 -114.13148288718 1114.6135 -16.6000 WGS84 1.4467 1.2698 2.4573 "" 0.000 0.000 27 22 22 22 00 06 35 33
[USB3]$GPGGA,221214.70,5104.7674100,N,11407.8890632,W,1,22,0.6,1114.627,M,-16.60,M,,*5D
<BESTPOS USB3 0 50.0 FINESTEERING 2354 598352.700 02000000 cdba 17399
<SOL_COMPUTED SINGLE 51.07945683369 -114.13148438636 1114.6265 -16.6000 WGS84 1.4474 1.2704 2.4584 "" 0.000 0.000 27 22 22 22 00 06 35 33
[USB3]$GPGGA,221214.80,5104.7673737,N,11407.8891384,W,1,22,0.6,1114.647,M,-16.60,M,,*58
<BESTPOS USB3 0 50.0 FINESTEERING 2354 598352.800 02000000 cdba 17399
<SOL_COMPUTED SINGLE 51.07945622794 -114.13148563923 1114.6466 -16.6000 WGS84 1.4480 1.2705 2.4593 "" 0.000 0.000 27 22 22 22 00 06 35 33
[USB3]$GPGGA,221214.90,5104.7673680,N,11407.8892042,W,1,22,0.6,1114.565,M,-16.60,M,,*5D
<BESTPOS USB3 0 50.0 FINESTEERING 2354 598352.900 02000000 cdba 17399
<SOL_COMPUTED SINGLE 51.07945613409 -114.13148673607 1114.5650 -16.6000 WGS84 1.4487 1.2710 2.4607 "" 0.000 0.000 27 22 22 22 00 06 35 33
[USB3]$GPGGA,221215.00,5104.7673729,N,11407.8892833,W,1,22,0.6,1114.488,M,-16.60,M,,*5B
<BESTPOS USB3 0 50.0 FINESTEERING 2354 598353.000 02000000 cdba 17399
<SOL_COMPUTED SINGLE 51.07945621560 -114.13148805575 1114.4877 -16.6000 WGS84 1.4493 1.2706 2.4620 "" 0.000 0.000 27 22 22 22 00 06 35 33
[USB3]$GPGGA,221215.10,5104.7673829,N,11407.8893719,W,1,22,0.6,1114.408,M,-16.60,M,,*5B
<BESTPOS USB3 0 46.0 FINESTEERING 2354 598353.100 02000000 cdba 17399
<SOL_COMPUTED SINGLE 51.07945638217 -114.13148953206 1114.4080 -16.6000 WGS84 1.4454 1.2623 2.4596 "" 0.000 0.000 27 22 22 22 00 06 35 33
[USB3]$GPGGA,221215.20,5104.7672053,N,11407.8895298,W,1,22,0.6,1114.970,M,-16.60,M,,*54
<BESTPOS USB3 0 46.0 FINESTEERING 2354 598353.200 02000000 cdba 17399
<SOL_COMPUTED SINGLE 51.07945342115 -114.13149216290 1114.9700 -16.6000 WGS84 1.4722 1.2657 2.5195 "" 0.000 0.000 27 22 22 22 00 06 35 37
[USB3]$GPGGA,221215.30,5104.7671880,N,11407.8896169,W,1,22,0.6,1114.959,M,-16.60,M,,*55
<BESTPOS USB3 0 46.0 FINESTEERING 2354 598353.300 02000000 cdba 17399
<SOL_COMPUTED SINGLE 51.07945313415 -114.13149361463 1114.9592 -16.6000 WGS84 1.4722 1.2658 2.5196 "" 0.000 0.000 27 22 22 22 00 06 35 37
[USB3]$GPGGA,221215.40,5104.7671700,N,11407.8897047,W,1,22,0.6,1114.958,M,-16.60,M,,*58
<BESTPOS USB3 0 46.0 FINESTEERING 2354 598353.400 02000000 cdba 17399
<SOL_COMPUTED SINGLE 51.07945283351 -114.13149507820 1114.9583 -16.6000 WGS84 1.4720 1.2657 2.5195 "" 0.000 0.000 27 22 22 22 00 06 35 37
[USB3]$GPGGA,221215.50,5104.7673633,N,11407.8896648,W,1,22,0.6,1114.173,M,-16.60,M,,*53
<BESTPOS USB3 0 46.0 FINESTEERING 2354 598353.500 02000000 cdba 17399
<SOL_COMPUTED SINGLE 51.07945605582 -114.13149441291 1114.1730 -16.6000 WGS84 1.4632 1.2645 2.4999 "" 0.000 0.000 27 22 22 22 00 06 35 33
[USB3]$GPGGA,221215.60,5104.7674000,N,11407.8897244,W,1,22,0.6,1113.995,M,-16.60,M,,*5F
<BESTPOS USB3 0 46.0 FINESTEERING 2354 598353.600 02000000 cdba 17399
<SOL_COMPUTED SINGLE 51.07945666677 -114.13149540682 1113.9954 -16.6000 WGS84 1.4495 1.2631 2.4683 "" 0.000 0.000 27 22 22 22 00 06 35 33
[USB3]$GPGGA,221215.70,5104.7673352,N,11407.8898290,W,1,22,0.6,1114.167,M,-16.60,M,,*59
<BESTPOS USB3 0 46.0 FINESTEERING 2354 598353.700 02000000 cdba 17399
<SOL_COMPUTED SINGLE 51.07945558680 -114.13149714965 1114.1673 -16.6000 WGS84 1.4611 1.2644 2.4944 "" 0.000 0.000 27 22 22 22 00 06 35 33
[USB3]$GPGGA,221215.80,5104.7670865,N,11407.8900313,W,1,22,0.6,1114.998,M,-16.60,M,,*58
<BESTPOS USB3 0 46.0 FINESTEERING 2354 598353.800 02000000 cdba 17399
<SOL_COMPUTED SINGLE 51.07945144158 -114.13150052158 1114.9982 -16.6000 WGS84 1.4720 1.2658 2.5188 "" 0.000 0.000 27 22 22 22 00 06 35 37
[USB3]$GPGGA,221215.90,5104.7670645,N,11407.8901134,W,1,22,0.6,1114.985,M,-16.60,M,,*5F
<BESTPOS USB3 0 46.0 FINESTEERING 2354 598353.900 02000000 cdba 17399
<SOL_COMPUTED SINGLE 51.07945107524 -114.13150189028 1114.9848 -16.6000 WGS84 1.4720 1.2658 2.5189 "" 0.000 0.000 27 22 22 22 00 06 35 37
[USB3]$GPGGA,221216.00,5104.7672407,N,11407.8901005,W,1,22,0.6,1114.263,M,-16.60,M,,*53
<BESTPOS USB3 0 46.0 FINESTEERING 2354 598354.000 02000000 cdba 17399
<SOL_COMPUTED SINGLE 51.07945401094 -114.13150167554 1114.2635 -16.6000 WGS84 1.4610 1.2645 2.4946 "" 0.000 0.000 27 22 22 22 00 06 35 33
[USB3]$GPGGA,221216.10,5104.7671904,N,11407.8902000,W,1,22,0.6,1114.379,M,-16.60,M,,*53
<BESTPOS USB3 0 46.0 FINESTEERING 2354 598354.100 02000000 cdba 17399
<SOL_COMPUTED SINGLE 51.07945317279 -114.13150333414 1114.3786 -16.6000 WGS84 1.4582 1.2641 2.4882 "" 0.000 0.000 27 22 22 22 00 06 35 33
[USB3]$GPGGA,221216.20,5104.7671723,N,11407.8902814,W,1,22,0.6,1114.388,M,-16.60,M,,*58
<BESTPOS USB3 0 48.5 FINESTEERING 2354 598354.200 02000000 cdba 17399
<SOL_COMPUTED SINGLE 51.07945287086 -114.13150468929 1114.3883 -16.6000 WGS84 1.4577 1.2636 2.4878 "" 0.000 0.000 27 22 22 22 00 06 35 33
[USB3]$GPGGA,221216.30,5104.7671589,N,11407.8903685,W,1,22,0.6,1114.373,M,-16.60,M,,*58
<BESTPOS USB3 0 48.5 FINESTEERING 2354 598354.300 02000000 cdba 17399
<SOL_COMPUTED SINGLE 51.07945264901 -114.13150614250 1114.3729 -16.6000 WGS84 1.4569 1.2638 2.4859 "" 0.000 0.000 27 22 22 22 00 06 35 33
[USB3]$GPGGA,221216.40,5104.7671289,N,11407.8904462,W,1,22,0.6,1114.365,M,-16.60,M,,*53
<BESTPOS USB3 0 48.5 FINESTEERING 2354 598354.400 02000000 cdba 17399
<SOL_COMPUTED SINGLE 51.07945214873 -114.13150743686 1114.3647 -16.6000 WGS84 1.4578 1.2640 2.4881 "" 0.000 0.000 27 22 22 22 00 06 35 33
[USB3]$GPGGA,221216.50,5104.7670948,N,11407.8905574,W,1,22,0.6,1114.414,M,-16.60,M,,*53
<BESTPOS USB3 0 48.5 FINESTEERING 2354 598354.500 02000000 cdba 17399
<SOL_COMPUTED SINGLE 51.07945157967 -114.13150928978 1114.4138 -16.6000 WGS84 1.4591 1.2648 2.4903 "" 0.000 0.000 27 22 22 22 00 06 35 33
[USB3]$GPGGA,221216.60,5104.7670616,N,11407.8906554,W,1,22,0.6,1114.444,M,-16.60,M,,*50
<BESTPOS USB3 0 48.5 FINESTEERING 2354 598354.600 02000000 cdba 17399
<SOL_COMPUTED SINGLE 51.07945102675 -114.13151092289 1114.4440 -16.6000 WGS84 1.4574 1.2652 2.4864 "" 0.000 0.000 27 22 22 22 00 06 35 33
[USB3]$GPGGA,221216.70,5104.7670216,N,11407.8907446,W,1,22,0.6,1114.480,M,-16.60,M,,*5E
<BESTPOS USB3 0 48.5 FINESTEERING 2354 598354.700 02000000 cdba 17399
<SOL_COMPUTED SINGLE 51.07945036057 -114.13151241004 1114.4801 -16.6000 WGS84 1.4570 1.2663 2.4847 "" 0.000 0.000 27 22 22 22 00 06 35 33
[USB3]$GPGGA,221216.80,5104.7670027,N,11407.8908235,W,1,22,0.6,1114.450,M,-16.60,M,,*51
<BESTPOS USB3 0 48.5 FINESTEERING 2354 598354.800 02000000 cdba 17399
<SOL_COMPUTED SINGLE 51.07945004561 -114.13151372467 1114.4499 -16.6000 WGS84 1.4495 1.2664 2.4669 "" 0.000 0.000 27 22 22 22 00 06 35 33
[USB3]$GPGGA,221216.90,5104.7668187,N,11407.8909837,W,1,22,0.6,1115.027,M,-16.60,M,,*5E
<BESTPOS USB3 0 48.5 FINESTEERING 2354 598354.900 02000000 cdba 17399
<SOL_COMPUTED SINGLE 51.07944697750 -114.13151639459 1115.0270 -16.6000 WGS84 1.4730 1.2691 2.5195 "" 0.000 0.000 27 22 22 22 00 06 35 37
[USB3]$GPGGA,221217.00,5104.7666327,N,11407.8911370,W,1,22,0.6,1115.565,M,-16.60,M,,*52
<BESTPOS USB3 0 48.5 FINESTEERING 2354 598355.000 02000000 cdba 17399
<SOL_COMPUTED SINGLE 51.07944387853 -114.13151895049 1115.5645 -16.6000 WGS84 1.4619 1.2687 2.4939 "" 0.000 0.000 27 22 22 22 00 06 35 33
[USB3]$GPGGA,221217.10,5104.7665985,N,11407.8912164,W,1,22,0.6,1115.552,M,-16.60,M,,*52
<BESTPOS USB3 0 48.5 FINESTEERING 2354 598355.100 02000000 cdba 17399
<SOL_COMPUTED SINGLE 51.07944330820 -114.13152027346 1115.5516 -16.6000 WGS84 1.4618 1.2700 2.4919 "" 0.000 0.000 27 22 22 22 00 06 35 33
[USB3]$GPGGA,221217.20,5104.7665625,N,11407.8913052,W,1,22,0.6,1115.600,M,-16.60,M,,*55
<BESTPOS USB3 0 49.5 FINESTEERING 2354 598355.200 02000000 cdba 17399
<SOL_COMPUTED SINGLE 51.07944270773 -114.13152175353 1115.6004 -16.6000 WGS84 1.4559 1.2680 2.4798 "" 0.000 0.000 27 22 22 22 00 06 35 33
[USB3]$GPGGA,221217.30,5104.7666917,N,11407.8913049,W,1,22,0.6,1115.045,M,-16.60,M,,*54
<BESTPOS USB3 0 49.5 FINESTEERING 2354 598355.300 02000000 cdba 17399
<SOL_COMPUTED SINGLE 51.07944486158 -114.13152174887 1115.0449 -16.6000 WGS84 1.4742 1.2695 2.5202 "" 0.000 0.000 27 22 22 22 00 06 35 37
[USB3]$GPGGA,221217.40,5104.7666614,N,11407.8913878,W,1,22,0.6,1115.038,M,-16.60,M,,*5F
<BESTPOS USB3 0 49.5 FINESTEERING 2354 598355.400 02000000 cdba 17399
<SOL_COMPUTED SINGLE 51.07944435725 -114.13152312988 1115.0376 -16.6000 WGS84 1.4740 1.2692 2.5204 "" 0.000 0.000 27 22 22 22 00 06 35 37
[USB3]$GPGGA,221217.50,5104.7666308,N,11407.8914818,W,1,22,0.6,1115.019,M,-16.60,M,,*54
<BESTPOS USB3 0 49.5 FINESTEERING 2354 598355.500 02000000 cdba 17399
<SOL_COMPUTED SINGLE 51.07944384614 -114.13152469744 1115.0190 -16.6000 WGS84 1.4733 1.2679 2.5207 "" 0.000 0.000 27 22 22 22 00 06 35 37
[USB3]$GPGGA,221217.60,5104.7665978,N,11407.8915711,W,1,22,0.6,1115.003,M,-16.60,M,,*55
<BESTPOS USB3 0 49.5 FINESTEERING 2354 598355.600 02000000 cdba 17399
<SOL_COMPUTED SINGLE 51.07944329700 -114.13152618562 1115.0030 -16.6000 WGS84 1.4728 1.2667 2.5206 "" 0.000 0.000 27 22 22 22 00 06 35 37
[USB3]$GPGGA,221217.70,5104.7665331,N,11407.8916977,W,1,21,0.7,1115.154,M,-16.60,M,,*5F
<BESTPOS USB3 0 49.5 FINESTEERING 2354 598355.700 02000000 cdba 17399
<SOL_COMPUTED SINGLE 51.07944221785 -114.13152829466 1115.1539 -16.6000 WGS84 1.5306 1.2741 2.6418 "" 0.000 0.000 26 21 21 21 00 06 35 33
[USB3]$GPGGA,221217.80,5104.7665434,N,11407.8917825,W,1,22,0.6,1115.027,M,-16.60,M,,*52
<BESTPOS USB3 0 49.5 FINESTEERING 2354 598355.800 02000000 cdba 17399
<SOL_COMPUTED SINGLE 51.07944238922 -114.13152970876 1115.0267 -16.6000 WGS84 1.4761 1.2676 2.5228 "" 0.000 0.000 27 22 22 22 00 06 35 37
[USB3]$GPGGA,221217.90,5104.7664662,N,11407.8919022,W,1,21,0.7,1115.201,M,-16.60,M,,*56
<BESTPOS USB3 0 49.5 FINESTEERING 2354 598355.900 02000000 cdba 17399
<SOL_COMPUTED SINGLE 51.07944110340 -114.13153170321 1115.2007 -16.6000 WGS84 1.5298 1.2740 2.6430 "" 0.000 0.000 26 21 21 21 00 06 35 33
[USB3]$GPGGA,221218.00,5104.7664461,N,11407.8920111,W,1,21,0.7,1115.190,M,-16.60,M,,*51
<BESTPOS USB3 0 49.5 FINESTEERING 2354 598356.000 02000000 cdba 17399
<SOL_COMPUTED SINGLE 51.07944076910 -114.13153351838 1115.1900 -16.6000 WGS84 1.5297 1.2742 2.6434 "" 0.000 0.000 26 21 21 21 00 06 35 33
[USB3]$GPGGA,221218.10,5104.7663825,N,11407.8920886,W,1,21,0.7,1115.129,M,-16.60,M,,*5E
<BESTPOS USB3 0 48.0 FINESTEERING 2354 598356.100 02000000 cdba 17399
<SOL_COMPUTED SINGLE 51.07943970834 -114.13153480949 1115.1287 -16.6000 WGS84 1.4831 1.2674 2.6342 "" 0.000 0.000 26 21 21 21 00 06 35 33
[USB3]$GPGGA,221218.20,5104.7663620,N,11407.8921884,W,1,21,0.7,1115.119,M,-16.60,M,,*56
<BESTPOS USB3 0 48.0 FINESTEERING 2354 598356.200 02000000 cdba 17399
<SOL_COMPUTED SINGLE 51.07943936638 -114.13153647255 1115.1187 -16.6000 WGS84 1.4808 1.2674 2.6341 "" 0.000 0.000 26 21 21 21 00 06 35 33
[USB3]$GPGGA,221218.30,5104.7663310,N,11407.8922695,W,1,21,0.7,1115.130,M,-16.60,M,,*57
<BESTPOS USB3 0 48.0 FINESTEERING 2354 598356.300 02000000 cdba 17399
<SOL_COMPUTED SINGLE 51.07943884993 -114.13153782469 1115.1300 -16.6000 WGS84 1.4805 1.2670 2.6338 "" 0.000 0.000 26 21 21 21 00 06 35 33
[USB3]$GPGGA,221218.40,5104.7663084,N,11407.8923645,W,1,21,0.7,1115.149,M,-16.60,M,,*5C
<BESTPOS USB3 0 48.0 FINESTEERING 2354 598356.400 02000000 cdba 17399
<SOL_COMPUTED SINGLE 51.07943847350 -114.13153940887 1115.1491 -16.6000 WGS84 1.4809 1.2675 2.6335 "" 0.000 0.000 26 21 21 21 00 06 35 33
[USB3]$GPGGA,221218.50,5104.7662773,N,11407.8924490,W,1,21,0.7,1115.161,M,-16.60,M,,*54
<BESTPOS USB3 0 48.0 FINESTEERING 2354 598356.500 02000000 cdba 17399
<SOL_COMPUTED SINGLE 51.07943795559 -114.13154081609 1115.1605 -16.6000 WGS84 1.4806 1.2682 2.6342 "" 0.000 0.000 26 21 21 21 00 06 35 33
[USB3]$GPGGA,221218.60,5104.7662504,N,11407.8925391,W,1,21,0.7,1115.132,M,-16.60,M,,*54
<BESTPOS USB3 0 48.0 FINESTEERING 2354 598356.600 02000000 cdba 17399
<SOL_COMPUTED SINGLE 51.07943750593 -114.13154231873 1115.1315 -16.6000 WGS84 1.4808 1.2685 2.6344 "" 0.000 0.000 26 21 21 21 00 06 35 33
[USB3]$GPGGA,221218.70,5104.7662239,N,11407.8926330,W,1,21,0.7,1115.101,M,-16.60,M,,*54
<BESTPOS USB3 0 48.0 FINESTEERING 2354 598356.700 02000000 cdba 17399
<SOL_COMPUTED SINGLE 51.07943706538 -114.13154388342 1115.1009 -16.6000 WGS84 1.4807 1.2685 2.6333 "" 0.000 0.000 26 21 21 21 00 06 35 33
[USB3]$GPGGA,221218.80,5104.7661939,N,11407.8927274,W,1,21,0.7,1115.103,M,-16.60,M,,*51
<BESTPOS USB3 0 48.0 FINESTEERING 2354 598356.800 02000000 cdba 17399
<SOL_COMPUTED SINGLE 51.07943656550 -114.13154545636 1115.1031 -16.6000 WGS84 1.4800 1.2680 2.6331 "" 0.000 0.000 26 21 21 21 00 06 35 33
[USB3]$GPGGA,221218.90,5104.7661577,N,11407.8928257,W,1,21,0.7,1115.116,M,-16.60,M,,*5C
<BESTPOS USB3 0 48.0 FINESTEERING 2354 598356.900 02000000 cdba 17399
<SOL_COMPUTED SINGLE 51.07943596198 -114.13154709574 1115.1165 -16.6000 WGS84 1.4802 1.2685 2.6331 "" 0.000 0.000 26 21 21 21 00 06 35 33
[USB3]$GPGGA,221219.00,5104.7661213,N,11407.8929172,W,1,21,0.7,1115.142,M,-16.60,M,,*55
<BESTPOS USB3 0 48.0 FINESTEERING 2354 598357.000 02000000 cdba 17399
<SOL_COMPUTED SINGLE 51.07943535452 -114.13154861952 1115.1423 -16.6000 WGS84 1.4795 1.2683 2.6334 "" 0.000 0.000 26 21 21 21 00 06 35 33
[USB3]$GPGGA,221219.10,5104.7660923,N,11407.8930153,W,1,21,0.7,1115.117,M,-16.60,M,,*56
<BESTPOS USB3 0 48.0 FINESTEERING 2354 598357.100 02000000 cdba 17399
<SOL_COMPUTED SINGLE 51.07943487111 -114.13155025477 1115.1174 -16.6000 WGS84 1.4788 1.2671 2.6324 "" 0.000 0.000 26 21 21 21 00 06 35 33
[USB3]$GPGGA,221219.20,5104.7660581,N,11407.8931056,W,1,21,0.7,1115.093,M,-16.60,M,,*59
<BESTPOS USB3 0 50.5 FINESTEERING 2354 598357.200 02000000 cdba 17399
<SOL_COMPUTED SINGLE 51.07943430117 -114.13155175961 1115.0926 -16.6000 WGS84 1.4785 1.2668 2.6324 "" 0.000 0.000 26 21 21 21 00 06 35 33
[USB3]$GPGGA,221219.30,5104.7660293,N,11407.8932048,W,1,21,0.7,1115.095,M,-16.60,M,,*56
<BESTPOS USB3 0 50.5 FINESTEERING 2354 598357.300 02000000 cdba 17399
<SOL_COMPUTED SINGLE 51.07943382175 -114.13155341357 1115.0946 -16.6000 WGS84 1.4783 1.2667 2.6328 "" 0.000 0.000 26 21 21 21 00 06 35 33
[USB3]$GPGGA,221219.40,5104.7659966,N,11407.8933032,W,1,21,0.7,1115.124,M,-16.60,M,,*5D
<BESTPOS USB3 0 50.5 FINESTEERING 2354 598357.400 02000000 cdba 17399
<SOL_COMPUTED SINGLE 51.07943327701 -114.13155505367 1115.1244 -16.6000 WGS84 1.4781 1.2667 2.6331 "" 0.000 0.000 26 21 21 21 00 06 35 33
[USB3]$GPGGA,221219.50,5104.7659651,N,11407.8934050,W,1,21,0.7,1115.143,M,-16.60,M,,*55
<BESTPOS USB3 0 50.5 FINESTEERING 2354 598357.500 02000000 cdba 17399
<SOL_COMPUTED SINGLE 51.07943275236 -114.13155675008 1115.1430 -16.6000 WGS84 1.4784 1.2671 2.6328 "" 0.000 0.000 26 21 21 21 00 06 35 33
[USB3]$GPGGA,221219.60,5104.7659283,N,11407.8935043,W,1,21,0.7,1115.149,M,-16.60,M,,*54
<BESTPOS USB3 0 50.5 FINESTEERING 2354 598357.600 02000000 cdba 17399
<SOL_COMPUTED SINGLE 51.07943213890 -114.13155840444 1115.1490 -16.6000 WGS84 1.4783 1.2669 2.6327 "" 0.000 0.000 26 21 21 21 00 06 35 33
[USB3]$GPGGA,221219.70,5104.7659009,N,11407.8936118,W,1,21,0.7,1115.122,M,-16.60,M,,*54
<BESTPOS USB3 0 50.5 FINESTEERING 2354 598357.700 02000000 cdba 17399
<SOL_COMPUTED SINGLE 51.07943168195 -114.13156019584 1115.1216 -16.6000 WGS84 1.4784 1.2672 2.6332 "" 0.000 0.000 26 21 21 21 00 06 35 33
[USB3]$GPGGA,221219.80,5104.7658719,N,11407.8937189,W,1,21,0.7,1115.088,M,-16.60,M,,*54
<BESTPOS USB3 0 50.5 FINESTEERING 2354 598357.800 02000000 cdba 17399
<SOL_COMPUTED SINGLE 51.07943119780 -114.13156198217 1115.0881 -16.6000 WGS84 1.4783 1.2672 2.6331 "" 0.000 0.000 26 21 21 21 00 06 35 33
[USB3]$GPGGA,221219.90,5104.7658368,N,11407.8938237,W,1,21,0.7,1115.090,M,-16.60,M,,*57
<BESTPOS USB3 0 50.5 FINESTEERING 2354 598357.900 02000000 cdba 17399
<SOL_COMPUTED SINGLE 51.07943061396 -114.13156372917 1115.0898 -16.6000 WGS84 1.4782 1.2670 2.6333 "" 0.000 0.000 26 21 21 21 00 06 35 33
[USB3]$GPGGA,221220.00,5104.7658082,N,11407.8939330,W,1,21,0.7,1115.111,M,-16.60,M,,*5C
<BESTPOS USB3 0 50.5 FINESTEERING 2354 598358.000 02000000 cdba 17399
<SOL_COMPUTED SINGLE 51.07943013664 -114.13156554938 1115.1106 -16.6000 WGS84 1.4780 1.2666 2.6324 "" 0.000 0.000 26 21 21 21 00 06 35 33
[USB3]$GPGGA,221220.10,5104.7657695,N,11407.8940274,W,1,21,0.7,1115.131,M,-16.60,M,,*5F
<BESTPOS USB3 0 45.0 FINESTEERING 2354 598358.100 02000000 cdba 17399
<SOL_COMPUTED SINGLE 51.07942949201 -114.13156712400 1115.1311 -16.6000 WGS84 1.4779 1.2662 2.6315 "" 0.000 0.000 26 21 21 21 00 06 35 33
[USB3]$GPGGA,221220.20,5104.7657397,N,11407.8941194,W,1,21,0.7,1115.138,M,-16.60,M,,*5E
<BESTPOS USB3 0 45.0 FINESTEERING 2354 598358.200 02000000 cdba 17399
<SOL_COMPUTED SINGLE 51.07942899486 -114.13156865608 1115.1381 -16.6000 WGS84 1.4780 1.2659 2.6314 "" 0.000 0.000 26 21 21 21 00 06 35 33
[USB3]$GPGGA,221220.30,5104.7656279,N,11407.8941559,W,1,20,0.7,1115.258,M,-16.60,M,,*5E
<BESTPOS USB3 0 45.0 FINESTEERING 2354 598358.300 02000000 cdba 17399
<SOL_COMPUTED SINGLE 51.07942713209 -114.13156926517 1115.2577 -16.6000 WGS84 1.5016 1.2703 2.6419 "" 0.000 0.000 25 20 20 20 00 06 35 33
[USB3]$GPGGA,221220.40,5104.7656790,N,11407.8942970,W,1,21,0.7,1115.098,M,-16.60,M,,*50
<BESTPOS USB3 0 45.0 FINESTEERING 2354 598358.400 02000000 cdba 17399
<SOL_COMPUTED SINGLE 51.07942798313 -114.13157161729 1115.0978 -16.6000 WGS84 1.4778 1.2654 2.6303 "" 0.000 0.000 26 21 21 21 00 06 35 33
[USB3]$GPGGA,221220.50,5104.7656485,N,11407.8943856,W,1,21,0.7,1115.115,M,-16.60,M,,*56
<BESTPOS USB3 0 45.0 FINESTEERING 2354 598358.500 02000000 cdba 17399
<SOL_COMPUTED SINGLE 51.07942747534 -114.13157309302 1115.1150 -16.6000 WGS84 1.4779 1.2651 2.6293 "" 0.000 0.000 26 21 21 21 00 06 35 33
[USB3]$GPGGA,221220.60,5104.7656158,N,11407.8944726,W,1,21,0.7,1115.141,M,-16.60,M,,*5E
<BESTPOS USB3 0 45.0 FINESTEERING 2354 598358.600 02000000 cdba 17399
<SOL_COMPUTED SINGLE 51.07942692925 -114.13157454317 1115.1413 -16.6000 WGS84 1.4777 1.2652 2.6292 "" 0.000 0.000 26 21 21 21 00 06 35 33
[USB3]$GPGGA,221220.70,5104.7655833,N,11407.8945590,W,1,21,0.7,1115.157,M,-16.60,M,,*51
<BESTPOS USB3 0 45.0 FINESTEERING 2354 598358.700 02000000 cdba 17399
<SOL_COMPUTED SINGLE 51.07942638822 -114.13157598351 1115.1572 -16.6000 WGS84 1.4776 1.2655 2.6295 "" 0.000 0.000 26 21 21 21 00 06 35 33
[USB3]$GPGGA,221220.80,5104.7655507,N,11407.8946502,W,1,21,0.7,1115.135,M,-16.60,M,,*58
<BESTPOS USB3 0 45.0 FINESTEERING 2354 598358.800 02000000 cdba 17399
<SOL_COMPUTED SINGLE 51.07942584517 -114.13157750406 1115.1347 -16.6000 WGS84 1.4777 1.2653 2.6289 "" 0.000 0.000 26 21 21 21 00 06 35 33
[USB3]$GPGGA,221220.90,5104.7655153,N,11407.8947491,W,1,21,0.7,1115.110,M,-16.60,M,,*51
<BESTPOS USB3 0 45.0 FINESTEERING 2354 598358.900 02000000 cdba 17399
<SOL_COMPUTED SINGLE 51.07942525421 -114.13157915165 1115.1097 -16.6000 WGS84 1.4777 1.2651 2.6285 "" 0.000 0.000 26 21 21 21 00 06 35 33
[USB3]$GPGGA,221221.00,5104.7654762,N,11407.8948560,W,1,21,0.7,1115.109,M,-16.60,M,,*54
<BESTPOS USB3 0 45.0 FINESTEERING 2354 598359.000 02000000 cdba 17399
<SOL_COMPUTED SINGLE 51.07942460353 -114.13158093306 1115.1089 -16.6000 WGS84 1.4775 1.2651 2.6289 "" 0.000 0.000 26 21 21 21 00 06 35 33
[USB3]$GPGGA,221221.10,5104.7654596,N,11407.8949454,W,1,21,0.7,1115.194,M,-16.60,M,,*5F
<BESTPOS USB3 0 45.0 FINESTEERING 2354 598359.100 02000000 cdba 17399
<SOL_COMPUTED SINGLE 51.07942432682 -114.13158242359 1115.1941 -16.6000 WGS84 1.4674 1.2530 2.5558 "" 0.000 0.000 26 21 21 21 00 06 35 33
[USB3]$GPGGA,221221.20,5104.7654224,N,11407.8950434,W,1,21,0.7,1115.217,M,-16.60,M,,*54
<BESTPOS USB3 0 48.0 FINESTEERING 2354 598359.200 02000000 cdba 17399
<SOL_COMPUTED SINGLE 51.07942370680 -114.13158405746 1115.2171 -16.6000 WGS84 1.4673 1.2528 2.5558 "" 0.000 0.000 26 21 21 21 00 06 35 33
[USB3]$GPGGA,221221.30,5104.7654775,N,11407.8951933,W,1,21,0.7,1115.122,M,-16.60,M,,*5A
<BESTPOS USB3 0 48.0 FINESTEERING 2354 598359.300 02000000 cdba 17399
<SOL_COMPUTED SINGLE 51.07942462565 -114.13158655568 1115.1217 -16.6000 WGS84 1.5553 1.2648 2.5764 "" 0.000 0.000 26 21 21 21 00 06 35 33
[USB3]$GPGGA,221221.40,5104.7653549,N,11407.8952407,W,1,21,0.7,1115.201,M,-16.60,M,,*5C
<BESTPOS USB3 0 48.0 FINESTEERING 2354 598359.400 02000000 cdba 17399
<SOL_COMPUTED SINGLE 51.07942258172 -114.13158734428 1115.2010 -16.6000 WGS84 1.4679 1.2530 2.5557 "" 0.000 0.000 26 21 21 21 00 06 35 33
[USB3]$GPGGA,221221.50,5104.7653298,N,11407.8953452,W,1,21,0.7,1115.175,M,-16.60,M,,*57
<BESTPOS USB3 0 48.0 FINESTEERING 2354 598359.500 02000000 cdba 17399
<SOL_COMPUTED SINGLE 51.07942216353 -114.13158908711 1115.1754 -16.6000 WGS84 1.4683 1.2530 2.5559 "" 0.000 0.000 26 21 21 21 00 06 35 33
[USB3]$GPGGA,221221.60,5104.7652960,N,11407.8954351,W,1,21,0.7,1115.195,M,-16.60,M,,*54
<BESTPOS USB3 0 48.0 FINESTEERING 2354 598359.600 02000000 cdba 17399
<SOL_COMPUTED SINGLE 51.07942159943 -114.13159058569 1115.1946 -16.6000 WGS84 1.4682 1.2528 2.5556 "" 0.000 0.000 26 21 21 21 00 06 35 33
[USB3]$GPGGA,221221.70,5104.7652731,N,11407.8955286,W,1,21,0.7,1115.218,M,-16.60,M,,*53
<BESTPOS USB3 0 48.0 FINESTEERING 2354 598359.700 02000000 cdba 17399
<SOL_COMPUTED SINGLE 51.07942121775 -114.13159214398 1115.2185 -16.6000 WGS84 1.4675 1.2530 2.5552 "" 0.000 0.000 26 21 21 21 00 06 35 33
[USB3]$GPGGA,221221.80,5104.7652446,N,11407.8956230,W,1,21,0.7,1115.230,M,-16.60,M,,*5B
<BESTPOS USB3 0 48.0 FINESTEERING 2354 598359.800 02000000 cdba 17399
<SOL_COMPUTED SINGLE 51.07942074343 -114.13159371633 1115.2297 -16.6000 WGS84 1.4674 1.2532 2.5554 "" 0.000 0.000 26 21 21 21 00 06 35 33
[USB3]$GPGGA,221221.90,5104.7652190,N,11407.8957250,W,1,21,0.7,1115.185,M,-16.60,M,,*5E
<BESTPOS USB3 0 48.0 FINESTEERING 2354 598359.900 02000000 cdba 17399
<SOL_COMPUTED SINGLE 51.07942031665 -114.13159541597 1115.1847 -16.6000 WGS84 1.4673 1.2530 2.5553 "" 0.000 0.000 26 21 21 21 00 06 35 33
[USB3]$GPGGA,221222.00,5104.7651852,N,11407.8958255,W,1,21,0.7,1115.161,M,-16.60,M,,*50
<BESTPOS USB3 0 48.0 FINESTEERING 2354 598360.000 02000000 cdba 17399
<SOL_COMPUTED SINGLE 51.07941975289 -114.13159709158 1115.1614 -16.6000 WGS84 1.4671 1.2526 2.5554 "" 0.000 0.000 26 21 21 21 00 06 35 33
[USB3]$GPGGA,221222.10,5104.7651547,N,11407.8959268,W,1,21,0.7,1115.143,M,-16.60,M,,*57
<BESTPOS USB3 0 45.5 FINESTEERING 2354 598360.100 02000000 cdba 17399
<SOL_COMPUTED SINGLE 51.07941924570 -114.13159878079 1115.1426 -16.6000 WGS84 1.4667 1.2523 2.5553 "" 0.000 0.000 26 21 21 21 00 06 35 33
[USB3]$GPGGA,221222.20,5104.7651173,N,11407.8960246,W,1,21,0.7,1115.174,M,-16.60,M,,*55
<BESTPOS USB3 0 45.5 FINESTEERING 2354 598360.200 02000000 cdba 17399
<SOL_COMPUTED SINGLE 51.07941862152 -114.13160040928 1115.1739 -16.6000 WGS84 1.4667 1.2524 2.5555 "" 0.000 0.000 26 21 21 21 00 06 35 33
[USB3]$GPGGA,221222.30,5104.7650844,N,11407.8961194,W,1,21,0.7,1115.190,M,-16.60,M,,*5F
<BESTPOS USB3 0 45.5 FINESTEERING 2354 598360.300 02000000 cdba 17399
<SOL_COMPUTED SINGLE 51.07941807290 -114.13160199024 1115.1898 -16.6000 WGS84 1.4666 1.2524 2.5552 "" 0.000 0.000 26 21 21 21 00 06 35 33
[USB3]$GPGGA,221222.40,5104.7650473,N,11407.8961994,W,1,21,0.7,1115.192,M,-16.60,M,,*5A
<BESTPOS USB3 0 45.5 FINESTEERING 2354 598360.400 02000000 cdba 17399
<SOL_COMPUTED SINGLE 51.07941745438 -114.13160332296 1115.1918 -16.6000 WGS84 1.4662 1.2518 2.5541 "" 0.000 0.000 26 21 21 21 00 06 35 33
[USB3]$GPGGA,221222.50,5104.7650071,N,11407.8962905,W,1,21,0.7,1115.185,M,-16.60,M,,*50
<BESTPOS USB3 0 45.5 FINESTEERING 2354 598360.500 02000000 cdba 17399
<SOL_COMPUTED SINGLE 51.07941678537 -114.13160484199 1115.1847 -16.6000 WGS84 1.4665 1.2521 2.5543 "" 0.000 0.000 26 21 21 21 00 06 35 33
[USB3]$GPGGA,221222.60,5104.7649667,N,11407.8963869,W,1,21,0.7,1115.184,M,-16.60,M,,*51
<BESTPOS USB3 0 45.5 FINESTEERING 2354 598360.600 02000000 cdba 17399
<SOL_COMPUTED SINGLE 51.07941611108 -114.13160644914 1115.1840 -16.6000 WGS84 1.4666 1.2519 2.5544 "" 0.000 0.000 26 21 21 21 00 06 35 33
[USB3]$GPGGA,221222.70,5104.7649296,N,11407.8964866,W,1,21,0.7,1115.188,M,-16.60,M,,*5E
<BESTPOS USB3 0 45.5 FINESTEERING 2354 598360.700 02000000 cdba 17399
<SOL_COMPUTED SINGLE 51.07941549260 -114.13160811047 1115.1882 -16.6000 WGS84 1.4669 1.2520 2.5544 "" 0.000 0.000 26 21 21 21 00 06 35 33
[USB3]$GPGGA,221222.80,5104.7648926,N,11407.8965805,W,1,21,0.7,1115.195,M,-16.60,M,,*58
<BESTPOS USB3 0 45.5 FINESTEERING 2354 598360.800 02000000 cdba 17399
<SOL_COMPUTED SINGLE 51.07941487708 -114.13160967423 1115.1946 -16.6000 WGS84 1.4671 1.2523 2.5542 "" 0.000 0.000 26 21 21 21 00 06 35 33
[USB3]$GPGGA,221222.90,5104.7648514,N,11407.8966716,W,1,21,0.7,1115.197,M,-16.60,M,,*58
<BESTPOS USB3 0 45.5 FINESTEERING 2354 598360.900 02000000 cdba 17399
<SOL_COMPUTED SINGLE 51.07941418945 -114.13161119321 1115.1966 -16.6000 WGS84 1.4669 1.2521 2.5539 "" 0.000 0.000 26 21 21 21 00 06 35 33
[USB3]$GPGGA,221223.00,5104.7648106,N,11407.8967723,W,1,21,0.7,1115.171,M,-16.60,M,,*58
<BESTPOS USB3 0 45.5 FINESTEERING 2354 598361.000 02000000 cdba 17399
<SOL_COMPUTED SINGLE 51.07941351018 -114.13161287116 1115.1713 -16.6000 WGS84 1.4668 1.2522 2.5537 "" 0.000 0.000 26 21 21 21 00 06 35 33
[USB3]$GPGGA,221223.10,5104.7647737,N,11407.8968803,W,1,21,0.7,1115.162,M,-16.60,M,,*52
<BESTPOS USB3 0 45.5 FINESTEERING 2354 598361.100 02000000 cdba 17399
<SOL_COMPUTED SINGLE 51.07941289529 -114.13161467230 1115.1621 -16.6000 WGS84 1.4664 1.2522 2.5539 "" 0.000 0.000 26 21 21 21 00 06 35 33
[USB3]$GPGGA,221223.20,5104.7647372,N,11407.8969949,W,1,21,0.7,1115.154,M,-16.60,M,,*5F
<BESTPOS USB3 0 48.5 FINESTEERING 2354 598361.200 02000000 cdba 17399
<SOL_COMPUTED SINGLE 51.07941228675 -114.13161658099 1115.1540 -16.6000 WGS84 1.4663 1.2524 2.5544 "" 0.000 0.000 26 21 21 21 00 06 35 33
[USB3]$GPGGA,221223.30,5104.7646913,N,11407.8970949,W,1,21,0.7,1115.169,M,-16.60,M,,*54
<BESTPOS USB3 0 48.5 FINESTEERING 2354 598361.300 02000000 cdba 17399
<SOL_COMPUTED SINGLE 51.07941152147 -114.13161824796 1115.1688 -16.6000 WGS84 1.4662 1.2524 2.5543 "" 0.000 0.000 26 21 21 21 00 06 35 33
[USB3]$GPGGA,221223.40,5104.7646549,N,11407.8971965,W,1,21,0.7,1115.189,M,-16.60,M,,*51
<BESTPOS USB3 0 48.5 FINESTEERING 2354 598361.400 02000000 cdba 17399
<SOL_COMPUTED SINGLE 51.07941091523 -114.13161994162 1115.1893 -16.6000 WGS84 1.4660 1.2525 2.5543 "" 0.000 0.000 26 21 21 21 00 06 35 33
[USB3]$GPGGA,221223.50,5104.7646155,N,11407.8972899,W,1,21,0.7,1115.201,M,-16.60,M,,*5B
<BESTPOS USB3 0 48.5 FINESTEERING 2354 598361.500 02000000 cdba 17399
<SOL_COMPUTED SINGLE 51.07941025811 -114.13162149826 1115.2015 -16.6000 WGS84 1.4658 1.2526 2.5543 "" 0.000 0.000 26 21 21 21 00 06 35 33
[USB3]$GPGGA,221223.60,5104.7645745,N,11407.8973806,W,1,21,0.7,1115.171,M,-16.60,M,,*5F
<BESTPOS USB3 0 48.5 FINESTEERING 2354 598361.600 02000000 cdba 17399
<SOL_COMPUTED SINGLE 51.07940957504 -114.13162301076 1115.1710 -16.6000 WGS84 1.4656 1.2527 2.5548 "" 0.000 0.000 26 21 21 21 00 06 35 33
[USB3]$GPGGA,221223.70,5104.7645305,N,11407.8974707,W,1,21,0.7,1115.161,M,-16.60,M,,*56
<BESTPOS USB3 0 48.5 FINESTEERING 2354 598361.700 02000000 cdba 17399
<SOL_COMPUTED SINGLE 51.07940884195 -114.13162451190 1115.1608 -16.6000 WGS84 1.4657 1.2534 2.5559 "" 0.000 0.000 26 21 21 21 00 06 35 33
[USB3]$GPGGA,221223.80,5104.7644761,N,11407.8975576,W,1,21,0.7,1115.177,M,-16.60,M,,*5C
<BESTPOS USB3 0 48.5 FINESTEERING 2354 598361.800 02000000 cdba 17399
<SOL_COMPUTED SINGLE 51.07940793501 -114.13162596000 1115.1774 -16.6000 WGS84 1.4662 1.2544 2.5569 "" 0.000 0.000 26 21 21 21 00 06 35 33
[USB3]$GPGGA,221223.90,5104.7644347,N,11407.8976452,W,1,21,0.7,1115.198,M,-16.60,M,,*58
<BESTPOS USB3 0 48.5 FINESTEERING 2354 598361.900 02000000 cdba 17399
<SOL_COMPUTED SINGLE 51.07940724419 -114.13162741949 1115.1981 -16.6000 WGS84 1.4666 1.2553 2.5576 "" 0.000 0.000 26 21 21 21 00 06 35 33
[USB3]$GPGGA,221224.00,5104.7643895,N,11407.8977285,W,1,21,0.7,1115.204,M,-16.60,M,,*5E
<BESTPOS USB3 0 48.5 FINESTEERING 2354 598362.000 02000000 cdba 17399
<SOL_COMPUTED SINGLE 51.07940649094 -114.13162880801 1115.2039 -16.6000 WGS84 1.4665 1.2554 2.5578 "" 0.000 0.000 26 21 21 21 00 06 35 33
[USB3]$GPGGA,221224.10,5104.7643405,N,11407.8978167,W,1,21,0.7,1115.186,M,-16.60,M,,*53
<BESTPOS USB3 0 47.5 FINESTEERING 2354 598362.100 02000000 cdba 17399
<SOL_COMPUTED SINGLE 51.07940567477 -114.13163027895 1115.1855 -16.6000 WGS84 1.4546 1.2544 2.5563 "" 0.000 0.000 26 21 21 21 00 06 35 33
[USB3]$GPGGA,221224.20,5104.7642997,N,11407.8979035,W,1,21,0.7,1115.171,M,-16.60,M,,*58
<BESTPOS USB3 0 47.5 FINESTEERING 2354 598362.200 02000000 cdba 17399
<SOL_COMPUTED SINGLE 51.07940499534 -114.13163172535 1115.1713 -16.6000 WGS84 1.4538 1.2527 2.5551 "" 0.000 0.000 26 21 21 21 00 06 35 33
[USB3]$GPGGA,221224.30,5104.7642623,N,11407.8979967,W,1,21,0.7,1115.163,M,-16.60,M,,*54
<BESTPOS USB3 0 47.5 FINESTEERING 2354 598362.300 02000000 cdba 17399
<SOL_COMPUTED SINGLE 51.07940437089 -114.13163327791 1115.1629 -16.6000 WGS84 1.4535 1.2522 2.5547 "" 0.000 0.000 26 21 21 21 00 06 35 33
[USB3]$GPGGA,221224.40,5104.7642254,N,11407.8980907,W,1,21,0.7,1115.177,M,-16.60,M,,*52
<BESTPOS USB3 0 47.5 FINESTEERING 2354 598362.400 02000000 cdba 17399
<SOL_COMPUTED SINGLE 51.07940375617 -114.13163484449 1115.1771 -16.6000 WGS84 1.4536 1.2521 2.5547 "" 0.000 0.000 26 21 21 21 00 06 35 33
[USB3]$GPGGA,221224.50,5104.7641872,N,11407.8981764,W,1,21,0.7,1115.200,M,-16.60,M,,*57
<BESTPOS USB3 0 47.5 FINESTEERING 2354 598362.500 02000000 cdba 17399
<SOL_COMPUTED SINGLE 51.07940311924 -114.13163627347 1115.1999 -16.6000 WGS84 1.4538 1.2520 2.5548 "" 0.000 0.000 26 21 21 21 00 06 35 33
[USB3]$GPGGA,221224.60,5104.7641470,N,11407.8982655,W,1,21,0.7,1115.211,M,-16.60,M,,*5A
<BESTPOS USB3 0 47.5 FINESTEERING 2354 598362.600 02000000 cdba 17399
<SOL_COMPUTED SINGLE 51.07940245071 -114.13163775752 1115.2111 -16.6000 WGS84 1.4538 1.2518 2.5544 "" 0.000 0.000 26 21 21 21 00 06 35 33
[USB3]$GPGGA,221224.70,5104.7641063,N,11407.8983590,W,1,21,0.7,1115.193,M,-16.60,M,,*5F
<BESTPOS USB3 0 47.5 FINESTEERING 2354 598362.700 02000000 cdba 17399
<SOL_COMPUTED SINGLE 51.07940177241 -114.13163931671 1115.1934 -16.6000 WGS84 1.4538 1.2515 2.5537 "" 0.000 0.000 26 21 21 21 00 06 35 33
[USB3]$GPGGA,221224.80,5104.7640662,N,11407.8984554,W,1,21,0.7,1115.186,M,-16.60,M,,*5D
<BESTPOS USB3 0 47.5 FINESTEERING 2354 598362.800 02000000 cdba 17399
<SOL_COMPUTED SINGLE 51.07940110368 -114.13164092307 1115.1856 -16.6000 WGS84 1.4537 1.2517 2.5536 "" 0.000 0.000 26 21 21 21 00 06 35 33
[USB3]$GPGGA,221224.90,5104.7640236,N,11407.8985449,W,1,21,0.7,1115.198,M,-16.60,M,,*5A
<BESTPOS USB3 0 47.5 FINESTEERING 2354 598362.900 02000000 cdba 17399
<SOL_COMPUTED SINGLE 51.07940039322 -114.13164241549 1115.1981 -16.6000 WGS84 1.4538 1.2519 2.5537 "" 0.000 0.000 26 21 21 21 00 06 35 33
[USB3]$GPGGA,221225.00,5104.7639856,N,11407.8986379,W,1,21,0.7,1115.210,M,-16.60,M,,*54
<BESTPOS USB3 0 47.5 FINESTEERING 2354 598363.000 02000000 cdba 17399
<SOL_COMPUTED SINGLE 51.07939976049 -114.13164396465 1115.2101 -16.6000 WGS84 1.4541 1.2524 2.5539 "" 0.000 0.000 26 21 21 21 00 06 35 33
[USB3]$GPGGA,221225.10,5104.7639466,N,11407.8987236,W,1,21,0.7,1115.221,M,-16.60,M,,*53
<BESTPOS USB3 0 47.0 FINESTEERING 2354 598363.100 02000000 cdba 17399
<SOL_COMPUTED SINGLE 51.07939910971 -114.13164539296 1115.2207 -16.6000 WGS84 1.4539 1.2526 2.5543 "" 0.000 0.000 26 21 21 21 00 06 35 33
[USB3]$GPGGA,221225.20,5104.7639045,N,11407.8988165,W,1,21,0.7,1115.214,M,-16.60,M,,*59
<BESTPOS USB3 0 47.0 FINESTEERING 2354 598363.200 02000000 cdba 17399
<SOL_COMPUTED SINGLE 51.07939840851 -114.13164694095 1115.2141 -16.6000 WGS84 1.4538 1.2524 2.5538 "" 0.000 0.000 26 21 21 21 00 06 35 33
[USB3]$GPGGA,221225.30,5104.7638656,N,11407.8989166,W,1,21,0.7,1115.187,M,-16.60,M,,*56
<BESTPOS USB3 0 47.0 FINESTEERING 2354 598363.300 02000000 cdba 17399
<SOL_COMPUTED SINGLE 51.07939776003 -114.13164861011 1115.1872 -16.6000 WGS84 1.4538 1.2522 2.5535 "" 0.000 0.000 26 21 21 21 00 06 35 33
[USB3]$GPGGA,221225.40,5104.7638282,N,11407.8990159,W,1,21,0.7,1115.180,M,-16.60,M,,*5F
<BESTPOS USB3 0 47.0 FINESTEERING 2354 598363.400 02000000 cdba 17399
<SOL_COMPUTED SINGLE 51.07939713602 -114.13165026454 1115.1798 -16.6000 WGS84 1.4535 1.2519 2.5538 "" 0.000 0.000 26 21 21 21 00 06 35 33
[USB3]$GPGGA,221225.50,5104.7637918,N,11407.8991202,W,1,21,0.7,1115.194,M,-16.60,M,,*50
<BESTPOS USB3 0 47.0 FINESTEERING 2354 598363.500 02000000 cdba 17399
<SOL_COMPUTED SINGLE 51.07939653068 -114.13165200270 1115.1940 -16.6000 WGS84 1.4534 1.2522 2.5542 "" 0.000 0.000 26 21 21 21 00 06 35 33
[USB3]$GPGGA,221225.60,5104.7637554,N,11407.8992138,W,1,21,0.7,1115.213,M,-16.60,M,,*52
<BESTPOS USB3 0 47.0 FINESTEERING 2354 598363.600 02000000 cdba 17399
<SOL_COMPUTED SINGLE 51.07939592401 -114.13165356356 1115.2127 -16.6000 WGS84 1.4534 1.2524 2.5549 "" 0.000 0.000 26 21 21 21 00 06 35 33
[USB3]$GPGGA,221225.70,5104.7637207,N,11407.8993112,W,1,21,0.7,1115.224,M,-16.60,M,,*5F
<BESTPOS USB3 0 47.0 FINESTEERING 2354 598363.700 02000000 cdba 17399
<SOL_COMPUTED SINGLE 51.07939534508 -114.13165518621 1115.2243 -16.6000 WGS84 1.4535 1.2529 2.5559 "" 0.000 0.000 26 21 21 21 00 06 35 33
[USB3]$GPGGA,221225.80,5104.7636850,N,11407.8994077,W,1,21,0.7,1115.207,M,-16.60,M,,*5D
<BESTPOS USB3 0 47.0 FINESTEERING 2354 598363.800 02000000 cdba 17399
<SOL_COMPUTED SINGLE 51.07939474960 -114.13165679521 1115.2066 -16.6000 WGS84 1.4536 1.2534 2.5567 "" 0.000 0.000 26 21 21 21 00 06 35 33
[USB3]$GPGGA,221225.90,5104.7636457,N,11407.8994988,W,1,21,0.7,1115.191,M,-16.60,M,,*52
<BESTPOS USB3 0 47.0 FINESTEERING 2354 598363.900 02000000 cdba 17399
<SOL_COMPUTED SINGLE 51.07939409464 -114.13165831359 1115.1910 -16.6000 WGS84 1.4534 1.2539 2.5583 "" 0.000 0.000 27 21 21 21 00 06 35 33
[USB3]$GPGGA,221226.00,5104.7636084,N,11407.8995879,W,1,21,0.7,1115.191,M,-16.60,M,,*5C
<BESTPOS USB3 0 47.0 FINESTEERING 2354 598364.000 02000000 cdba 17399
<SOL_COMPUTED SINGLE 51.07939347345 -114.13165979885 1115.1910 -16.6000 WGS84 1.4533 1.2546 2.5600 "" 0.000 0.000 27 21 21 21 00 06 35 33
[USB3]$GPGGA,221226.10,5104.7635684,N,11407.8996764,W,1,21,0.7,1115.208,M,-16.60,M,,*5B
<BESTPOS USB3 0 47.0 FINESTEERING 2354 598364.100 02000000 cdba 17399
<SOL_COMPUTED SINGLE 51.07939280704 -114.13166127363 1115.2081 -16.6000 WGS84 1.4531 1.2550 2.5613 "" 0.000 0.000 27 21 21 21 00 06 35 33
[USB3]$GPGGA,221226.20,5104.7635306,N,11407.8997677,W,1,21,0.7,1115.215,M,-16.60,M,,*59
<BESTPOS USB3 0 49.5 FINESTEERING 2354 598364.200 02000000 cdba 17399
<SOL_COMPUTED SINGLE 51.07939217589 -114.13166279558 1115.2153 -16.6000 WGS84 1.4529 1.2546 2.5608 "" 0.000 0.000 27 21 21 21 00 06 35 33
[USB3]$GPGGA,221226.30,5104.7634904,N,11407.8998701,W,1,21,0.7,1115.202,M,-16.60,M,,*58
<BESTPOS USB3 0 49.5 FINESTEERING 2354 598364.300 02000000 cdba 17399
<SOL_COMPUTED SINGLE 51.07939150611 -114.13166450247 1115.2022 -16.6000 WGS84 1.4530 1.2551 2.5620 "" 0.000 0.000 27 21 21 21 00 06 35 33
[USB3]$GPGGA,221226.40,5104.7634398,N,11407.8999705,W,1,21,0.7,1115.173,M,-16.60,M,,*50
<BESTPOS USB3 0 49.5 FINESTEERING 2354 598364.400 02000000 cdba 17399
<SOL_COMPUTED SINGLE 51.07939066395 -114.13166617426 1115.1734 -16.6000 WGS84 1.4530 1.2561 2.5640 "" 0.000 0.000 26 21 21 21 00 06 35 33
[USB3]$GPGGA,221226.50,5104.7633999,N,11407.9000764,W,1,21,0.7,1115.162,M,-16.60,M,,*52
<BESTPOS USB3 0 49.5 FINESTEERING 2354 598364.500 02000000 cdba 17399
<SOL_COMPUTED SINGLE 51.07938999793 -114.13166793953 1115.1622 -16.6000 WGS84 1.4531 1.2563 2.5642 "" 0.000 0.000 28 21 21 21 00 06 35 33
[USB3]$GPGGA,221226.60,5104.7633563,N,11407.9001750,W,1,21,0.7,1115.178,M,-16.60,M,,*55
<BESTPOS USB3 0 49.5 FINESTEERING 2354 598364.600 02000000 cdba 17399
<SOL_COMPUTED SINGLE 51.07938927170 -114.13166958313 1115.1783 -16.6000 WGS84 1.4531 1.2559 2.5634 "" 0.000 0.000 28 21 21 21 00 06 35 33
[USB3]$GPGGA,221226.70,5104.7633107,N,11407.9002749,W,1,21,0.7,1115.204,M,-16.60,M,,*51
<BESTPOS USB3 0 49.5 FINESTEERING 2354 598364.700 02000000 cdba 17399
<SOL_COMPUTED SINGLE 51.07938851099 -114.13167124811 1115.2036 -16.6000 WGS84 1.4532 1.2549 2.5610 "" 0.000 0.000 27 21 21 21 00 06 35 33
[USB3]$GPGGA,221226.80,5104.7632733,N,11407.9003761,W,1,21,0.7,1115.208,M,-16.60,M,,*59
<BESTPOS USB3 0 49.5 FINESTEERING 2354 598364.800 02000000 cdba 17399
<SOL_COMPUTED SINGLE 51.07938788800 -114.13167293552 1115.2082 -16.6000 WGS84 1.4531 1.2539 2.5589 "" 0.000 0.000 27 21 21 21 00 06 35 33
[USB3]$GPGGA,221226.90,5104.7632277,N,11407.9004696,W,1,21,0.7,1115.190,M,-16.60,M,,*51
<BESTPOS USB3 0 49.5 FINESTEERING 2354 598364.900 02000000 cdba 17399
<SOL_COMPUTED SINGLE 51.07938712822 -114.13167449344 1115.1904 -16.6000 WGS84 1.4531 1.2537 2.5581 "" 0.000 0.000 27 21 21 21 00 06 35 33
[USB3]$GPGGA,221227.00,5104.7631857,N,11407.9005664,W,1,21,0.7,1115.175,M,-16.60,M,,*55
<BESTPOS USB3 0 49.5 FINESTEERING 2354 598365.000 02000000 cdba 17399
<SOL_COMPUTED SINGLE 51.07938642864 -114.13167610598 1115.1754 -16.6000 WGS84 1.4531 1.2532 2.5572 "" 0.000 0.000 27 21 21 21 00 06 35 33
[USB3]$GPGGA,221227.10,5104.7631340,N,11407.9006506,W,1,21,0.7,1115.174,M,-16.60,M,,*5C
<BESTPOS USB3 0 47.5 FINESTEERING 2354 598365.100 02000000 cdba 17399
<SOL_COMPUTED SINGLE 51.07938556615 -114.13167750949 1115.1736 -16.6000 WGS84 1.4528 1.2520 2.5548 "" 0.000 0.000 27 21 21 21 00 06 35 33
[USB3]$GPGGA,221227.20,5104.7630916,N,11407.9007460,W,1,21,0.7,1115.213,M,-16.60,M,,*55
<BESTPOS USB3 0 47.5 FINESTEERING 2354 598365.200 02000000 cdba 17399
<SOL_COMPUTED SINGLE 51.07938486060 -114.13167909945 1115.2126 -16.6000 WGS84 1.4529 1.2522 2.5544 "" 0.000 0.000 27 21 21 21 00 06 35 33
[USB3]$GPGGA,221227.30,5104.7630430,N,11407.9008415,W,1,22,0.6,1115.219,M,-16.60,M,,*58
<BESTPOS USB3 0 47.5 FINESTEERING 2354 598365.300 02000000 cdba 17399
<SOL_COMPUTED SINGLE 51.07938404978 -114.13168069239 1115.2191 -16.6000 WGS84 1.4514 1.2525 2.5520 "" 0.000 0.000 28 22 22 22 00 06 35 37
[USB3]$GPGGA,221227.40,5104.7629980,N,11407.9009394,W,1,22,0.6,1115.175,M,-16.60,M,,*57
<BESTPOS USB3 0 47.5 FINESTEERING 2354 598365.400 02000000 cdba 17399
<SOL_COMPUTED SINGLE 51.07938330008 -114.13168232322 1115.1754 -16.6000 WGS84 1.4513 1.2526 2.5513 "" 0.000 0.000 28 22 22 22 00 06 35 37
[USB3]$GPGGA,221227.50,5104.7629609,N,11407.9010487,W,1,22,0.6,1115.167,M,-16.60,M,,*56
<BESTPOS USB3 0 47.5 FINESTEERING 2354 598365.500 02000000 cdba 17399
<SOL_COMPUTED SINGLE 51.07938268114 -114.13168414557 1115.1669 -16.6000 WGS84 1.4505 1.2526 2.5501 "" 0.000 0.000 28 22 22 22 00 06 35 37
[USB3]$GPGGA,221227.60,5104.7629160,N,11407.9011481,W,1,22,0.6,1115.193,M,-16.60,M,,*51
<BESTPOS USB3 0 47.5 FINESTEERING 2354 598365.600 02000000 cdba 17399
<SOL_COMPUTED SINGLE 51.07938193350 -114.13168580171 1115.1928 -16.6000 WGS84 1.4496 1.2522 2.5477 "" 0.000 0.000 28 22 22 22 00 06 35 37
[USB3]$GPGGA,221227.70,5104.7628714,N,11407.9012633,W,1,22,0.6,1115.219,M,-16.60,M,,*5D
<BESTPOS USB3 0 47.5 FINESTEERING 2354 598365.700 02000000 cdba 17399
<SOL_COMPUTED SINGLE 51.07938119013 -114.13168772117 1115.2186 -16.6000 WGS84 1.4484 1.2522 2.5438 "" 0.000 0.000 28 22 22 22 00 06 35 37
[USB3]$GPGGA,221227.80,5104.7628246,N,11407.9013711,W,1,22,0.6,1115.269,M,-16.60,M,,*57
<BESTPOS USB3 0 47.5 FINESTEERING 2354 598365.800 02000000 cdba 17399
<SOL_COMPUTED SINGLE 51.07938041080 -114.13168951858 1115.2686 -16.6000 WGS84 1.4458 1.2519 2.5378 "" 0.000 0.000 28 22 22 22 00 06 35 37
[USB3]$GPGGA,221227.90,5104.7627728,N,11407.9014849,W,1,22,0.6,1115.321,M,-16.60,M,,*5C
<BESTPOS USB3 0 47.5 FINESTEERING 2354 598365.900 02000000 cdba 17399
<SOL_COMPUTED SINGLE 51.07937954707 -114.13169141556 1115.3211 -16.6000 WGS84 1.4405 1.2510 2.5254 "" 0.000 0.000 28 22 22 22 00 06 35 37
[USB3]$GPGGA,221228.00,5104.7626957,N,11407.9016172,W,1,22,0.6,1115.416,M,-16.60,M,,*5D
<BESTPOS USB3 0 47.5 FINESTEERING 2354 598366.000 02000000 cdba 17399
<SOL_COMPUTED SINGLE 51.07937826166 -114.13169362001 1115.4163 -16.6000 WGS84 1.4288 1.2489 2.4980 "" 0.000 0.000 28 22 22 22 00 06 35 37
[USB3]$GPGGA,221228.10,5104.7625878,N,11407.9017597,W,1,22,0.6,1115.661,M,-16.60,M,,*5F
<BESTPOS USB3 0 46.0 FINESTEERING 2354 598366.100 02000000 cdba 17399
<SOL_COMPUTED SINGLE 51.07937646382 -114.13169599511 1115.6608 -16.6000 WGS84 1.4083 1.2451 2.4483 "" 0.000 0.000 28 22 22 22 00 06 35 37
[USB3]$GPGGA,221228.20,5104.7625120,N,11407.9018874,W,1,22,0.6,1115.797,M,-16.60,M,,*5F
<BESTPOS USB3 0 46.0 FINESTEERING 2354 598366.200 02000000 cdba 17399
<SOL_COMPUTED SINGLE 51.07937519920 -114.13169812335 1115.7967 -16.6000 WGS84 1.4022 1.2440 2.4333 "" 0.000 0.000 28 22 22 22 00 06 35 37
[USB3]$GPGGA,221228.30,5104.7624600,N,11407.9019943,W,1,22,0.6,1115.848,M,-16.60,M,,*53
<BESTPOS USB3 0 46.0 FINESTEERING 2354 598366.300 02000000 cdba 17399
<SOL_COMPUTED SINGLE 51.07937433257 -114.13169990483 1115.8475 -16.6000 WGS84 1.4018 1.2439 2.4329 "" 0.000 0.000 28 22 22 22 00 06 35 37
[USB3]$GPGGA,221228.40,5104.7623918,N,11407.9021088,W,1,22,0.6,1115.907,M,-16.60,M,,*5A
<BESTPOS USB3 0 46.0 FINESTEERING 2354 598366.400 02000000 cdba 17399
<SOL_COMPUTED SINGLE 51.07937319645 -114.13170181382 1115.9065 -16.6000 WGS84 1.4018 1.2440 2.4328 "" 0.000 0.000 28 22 22 22 00 06 35 37
[USB3]$GPGGA,221228.50,5104.7623382,N,11407.9022248,W,1,22,0.6,1115.966,M,-16.60,M,,*58
<BESTPOS USB3 0 46.0 FINESTEERING 2354 598366.500 02000000 cdba 17399
<SOL_COMPUTED SINGLE 51.07937230376 -114.13170374717 1115.9663 -16.6000 WGS84 1.4020 1.2439 2.4329 "" 0.000 0.000 28 22 22 22 00 06 35 37
[USB3]$GPGGA,221228.60,5104.7622497,N,11407.9023531,W,1,22,0.6,1116.123,M,-16.60,M,,*5B
<BESTPOS USB3 0 46.0 FINESTEERING 2354 598366.600 02000000 cdba 17399
<SOL_COMPUTED SINGLE 51.07937082754 -114.13170588451 1116.1233 -16.6000 WGS84 1.4023 1.2439 2.4335 "" 0.000 0.000 28 22 22 22 00 06 35 37
[USB3]$GPGGA,221228.70,5104.7621719,N,11407.9024786,W,1,22,0.6,1116.280,M,-16.60,M,,*5F
<BESTPOS USB3 0 46.0 FINESTEERING 2354 598366.700 02000000 cdba 17399
<SOL_COMPUTED SINGLE 51.07936953227 -114.13170797734 1116.2804 -16.6000 WGS84 1.4024 1.2436 2.4334 "" 0.000 0.000 28 22 22 22 00 06 35 37
[USB3]$GPGGA,221228.80,5104.7624279,N,11407.9024039,W,1,21,0.7,1115.191,M,-16.60,M,,*57
<BESTPOS USB3 0 46.0 FINESTEERING 2354 598366.800 02000000 cdba 17399
<SOL_COMPUTED SINGLE 51.07937379817 -114.13170673177 1115.1907 -16.6000 WGS84 1.4534 1.2516 2.5538 "" 0.000 0.000 27 21 21 21 00 06 35 33
[USB3]$GPGGA,221228.90,5104.7616603,N,11407.9029340,W,1,22,0.6,1117.961,M,-16.60,M,,*59
<BESTPOS USB3 0 46.0 FINESTEERING 2354 598366.900 02000000 cdba 17399
<SOL_COMPUTED SINGLE 51.07936100424 -114.13171556748 1117.9612 -16.6000 WGS84 1.4031 1.2438 2.4340 "" 0.000 0.000 28 22 22 22 00 06 35 37
[USB3]$GPGGA,221229.00,5104.7616200,N,11407.9030289,W,1,22,0.6,1117.942,M,-16.60,M,,*5B
<BESTPOS USB3 0 46.0 FINESTEERING 2354 598367.000 02000000 cdba 17399
<SOL_COMPUTED SINGLE 51.07936033259 -114.13171714863 1117.9421 -16.6000 WGS84 1.4029 1.2434 2.4336 "" 0.000 0.000 28 22 22 22 00 06 35 37
[USB3]$GPGGA,221229.10,5104.7615840,N,11407.9031181,W,1,22,0.6,1117.920,M,-16.60,M,,*59
<BESTPOS USB3 0 46.0 FINESTEERING 2354 598367.100 02000000 cdba 17399
<SOL_COMPUTED SINGLE 51.07935973388 -114.13171863461 1117.9203 -16.6000 WGS84 1.3665 1.2326 2.4081 "" 0.000 0.000 28 22 22 22 00 06 35 37
[USB3]$GPGGA,221229.20,5104.7615712,N,11407.9031940,W,1,22,0.6,1117.818,M,-16.60,M,,*5D
<BESTPOS USB3 0 47.5 FINESTEERING 2354 598367.200 02000000 cdba 17399
<SOL_COMPUTED SINGLE 51.07935952050 -114.13171989989 1117.8179 -16.6000 WGS84 1.3666 1.2327 2.4087 "" 0.000 0.000 28 22 22 22 00 06 35 37
[USB3]$GPGGA,221229.30,5104.7615475,N,11407.9032728,W,1,22,0.6,1117.760,M,-16.60,M,,*5D
<BESTPOS USB3 0 47.5 FINESTEERING 2354 598367.300 02000000 cdba 17399
<SOL_COMPUTED SINGLE 51.07935912534 -114.13172121408 1117.7604 -16.6000 WGS84 1.3662 1.2323 2.4078 "" 0.000 0.000 28 22 22 22 00 06 35 37
[USB3]$GPGGA,221229.40,5104.7615245,N,11407.9033576,W,1,22,0.6,1117.689,M,-16.60,M,,*51
<BESTPOS USB3 0 47.5 FINESTEERING 2354 598367.400 02000000 cdba 17399
<SOL_COMPUTED SINGLE 51.07935874222 -114.13172262705 1117.6886 -16.6000 WGS84 1.3655 1.2322 2.4065 "" 0.000 0.000 28 22 22 22 00 06 35 37
[USB3]$GPGGA,221229.50,5104.7615161,N,11407.9034511,W,1,22,0.6,1117.554,M,-16.60,M,,*50
<BESTPOS USB3 0 47.5 FINESTEERING 2354 598367.500 02000000 cdba 17399
<SOL_COMPUTED SINGLE 51.07935860089 -114.13172418573 1117.5538 -16.6000 WGS84 1.3653 1.2326 2.4067 "" 0.000 0.000 28 22 22 22 00 06 35 37
[USB3]$GPGGA,221229.60,5104.7615029,N,11407.9035322,W,1,22,0.6,1117.421,M,-16.60,M,,*5A
<BESTPOS USB3 0 47.5 FINESTEERING 2354 598367.600 02000000 cdba 17399
<SOL_COMPUTED SINGLE 51.07935838156 -114.13172553714 1117.4210 -16.6000 WGS84 1.3661 1.2334 2.4083 "" 0.000 0.000 28 22 22 22 00 06 35 37
[USB3]$GPGGA,221229.70,5104.7614956,N,11407.9036155,W,1,22,0.6,1117.318,M,-16.60,M,,*57
<BESTPOS USB3 0 47.5 FINESTEERING 2354 598367.700 02000000 cdba 17399
<SOL_COMPUTED SINGLE 51.07935826043 -114.13172692516 1117.3180 -16.6000 WGS84 1.3669 1.2338 2.4098 "" 0.000 0.000 28 22 22 22 00 06 35 37
[USB3]$GPGGA,221229.80,5104.7614591,N,11407.9037009,W,1,22,0.6,1117.325,M,-16.60,M,,*58
<BESTPOS USB3 0 47.5 FINESTEERING 2354 598367.800 02000000 cdba 17399
<SOL_COMPUTED SINGLE 51.07935765200 -114.13172834886 1117.3248 -16.6000 WGS84 1.3671 1.2344 2.4106 "" 0.000 0.000 28 22 22 22 00 06 35 37
[USB3]$GPGGA,221229.90,5104.7619898,N,11407.9034550,W,1,21,0.7,1115.195,M,-16.60,M,,*53
<BESTPOS USB3 0 47.5 FINESTEERING 2354 598367.900 02000000 cdba 17399
<SOL_COMPUTED SINGLE 51.07936649708 -114.13172424950 1115.1953 -16.6000 WGS84 1.4197 1.2430 2.5309 "" 0.000 0.000 27 21 21 21 00 06 35 33
[USB3]$GPGGA,221230.00,5104.7619350,N,11407.9035604,W,1,22,0.6,1115.232,M,-16.60,M,,*52
<BESTPOS USB3 0 47.5 FINESTEERING 2354 598368.000 02000000 cdba 17399
<SOL_COMPUTED SINGLE 51.07936558283 -114.13172600601 1115.2322 -16.6000 WGS84 1.4179 1.2436 2.5291 "" 0.000 0.000 28 22 22 21 00 06 35 33
[USB3]$GPGGA,221230.10,5104.7618956,N,11407.9036458,W,1,21,0.7,1115.176,M,-16.60,M,,*57
<BESTPOS USB3 0 47.5 FINESTEERING 2354 598368.100 02000000 cdba 17399
<SOL_COMPUTED SINGLE 51.07936492728 -114.13172742990 1115.1757 -16.6000 WGS84 1.4191 1.2439 2.5331 "" 0.000 0.000 27 21 21 21 00 06 35 33
[USB3]$GPGGA,221230.20,5104.7618507,N,11407.9037460,W,1,21,0.7,1115.163,M,-16.60,M,,*52
<BESTPOS USB3 0 47.5 FINESTEERING 2354 598368.200 02000000 cdba 17399
<SOL_COMPUTED SINGLE 51.07936417912 -114.13172910049 1115.1629 -16.6000 WGS84 1.4189 1.2446 2.5353 "" 0.000 0.000 27 21 21 21 00 06 35 33
[USB3]$GPGGA,221230.30,5104.7618053,N,11407.9038375,W,1,21,0.7,1115.174,M,-16.60,M,,*5D
<BESTPOS USB3 0 48.5 FINESTEERING 2354 598368.300 02000000 cdba 17399
<SOL_COMPUTED SINGLE 51.07936342211 -114.13173062477 1115.1739 -16.6000 WGS84 1.4191 1.2455 2.5368 "" 0.000 0.000 26 21 21 21 00 06 35 33
[USB3]$GPGGA,221230.40,5104.7617600,N,11407.9039246,W,1,21,0.7,1115.184,M,-16.60,M,,*5A
<BESTPOS USB3 0 48.5 FINESTEERING 2354 598368.400 02000000 cdba 17399
<SOL_COMPUTED SINGLE 51.07936266585 -114.13173207700 1115.1839 -16.6000 WGS84 1.4190 1.2467 2.5386 "" 0.000 0.000 26 21 21 21 00 06 35 33
[USB3]$GPGGA,221230.50,5104.7617134,N,11407.9040171,W,1,21,0.7,1115.163,M,-16.60,M,,*5B
<BESTPOS USB3 0 48.5 FINESTEERING 2354 598368.500 02000000 cdba 17399
<SOL_COMPUTED SINGLE 51.07936188939 -114.13173361876 1115.1629 -16.6000 WGS84 1.4188 1.2463 2.5382 "" 0.000 0.000 27 21 21 21 00 06 35 33
[USB3]$GPGGA,221230.60,5104.7616676,N,11407.9041124,W,1,21,0.7,1115.131,M,-16.60,M,,*5E
<BESTPOS USB3 0 48.5 FINESTEERING 2354 598368.600 02000000 cdba 17399
<SOL_COMPUTED SINGLE 51.07936112667 -114.13173520633 1115.1310 -16.6000 WGS84 1.4185 1.2466 2.5389 "" 0.000 0.000 27 21 21 21 00 06 35 33
[USB3]$GPGGA,221230.70,5104.7616251,N,11407.9042159,W,1,21,0.7,1115.135,M,-16.60,M,,*53
<BESTPOS USB3 0 48.5 FINESTEERING 2354 598368.700 02000000 cdba 17399
<SOL_COMPUTED SINGLE 51.07936041824 -114.13173693102 1115.1354 -16.6000 WGS84 1.4182 1.2470 2.5398 "" 0.000 0.000 27 21 21 21 00 06 35 33
[USB3]$GPGGA,221230.80,5104.7615844,N,11407.9043136,W,1,21,0.7,1115.118,M,-16.60,M,,*56
<BESTPOS USB3 0 48.5 FINESTEERING 2354 598368.800 02000000 cdba 17399
<SOL_COMPUTED SINGLE 51.07935974017 -114.13173856010 1115.1175 -16.6000 WGS84 1.4183 1.2480 2.5422 "" 0.000 0.000 28 21 21 21 00 06 35 33
[USB3]$GPGGA,221230.90,5104.7615415,N,11407.9044073,W,1,21,0.7,1115.131,M,-16.60,M,,*53
<BESTPOS USB3 0 48.5 FINESTEERING 2354 598368.900 02000000 cdba 17399
<SOL_COMPUTED SINGLE 51.07935902439 -114.13174012216 1115.1305 -16.6000 WGS84 1.4184 1.2515 2.5492 "" 0.000 0.000 27 21 21 21 00 06 35 33
[USB3]$GPGGA,221231.00,5104.7614982,N,11407.9045024,W,1,21,0.7,1115.153,M,-16.60,M,,*5E
<BESTPOS USB3 0 48.5 FINESTEERING 2354 598369.000 02000000 cdba 17399
<SOL_COMPUTED SINGLE 51.07935830275 -114.13174170678 1115.1527 -16.6000 WGS84 1.4182 1.2537 2.5539 "" 0.000 0.000 27 21 21 21 00 06 35 33
[USB3]$GPGGA,221231.10,5104.7614538,N,11407.9045843,W,1,21,0.7,1115.115,M,-16.60,M,,*59
<BESTPOS USB3 0 47.0 FINESTEERING 2354 598369.100 02000000 cdba 17399
